{
"type": "FeatureCollection",
"crs": { "type": "name", "properties": { "name": "urn:ogc:def:crs:OGC:1.3:CRS84" } },
"features": [
{ "type": "Feature", "properties": { "No": 265.0, "No_by_Stru": 1.0, "No_of_tri_": "I 23", "Name_by_St": "Staro-Nekrassowka", "Alt_names": null, "Lat_DMS": "45° 19'  54\"", "Lat_Dec": 45.331667, "Lon_DMS": "28° 55'  41\"", "Lon_Dec": 28.928056, "Country": "Ukraine", "UNESCO": 34.0, "Name_RU": "Старо-Некрасовка" }, "geometry": { "type": "Point", "coordinates": [ 28.928055555555559, 45.331666666666671 ] } },
{ "type": "Feature", "properties": { "No": 264.0, "No_by_Stru": 2.0, "No_of_tri_": "I 22", "Name_by_St": "Ismail", "Alt_names": "Izmail", "Lat_DMS": "45° 19'  57\"", "Lat_Dec": 45.3325, "Lon_DMS": "28° 50'  39\"", "Lon_Dec": 28.844167, "Country": "Ukraine", "UNESCO": 0.0, "Name_RU": "Измаил" }, "geometry": { "type": "Point", "coordinates": [ 28.84416666666667, 45.3325 ] } },
{ "type": "Feature", "properties": { "No": 263.0, "No_by_Stru": 3.0, "No_of_tri_": "I 21", "Name_by_St": "Borska", "Alt_names": "Broska", "Lat_DMS": "45° 22'  16\"", "Lat_Dec": 45.371111, "Lon_DMS": "28° 45'  37\"", "Lon_Dec": 28.760278, "Country": "Ukraine", "UNESCO": 0.0, "Name_RU": "Борска" }, "geometry": { "type": "Point", "coordinates": [ 28.760277777777777, 45.371111111111112 ] } },
{ "type": "Feature", "properties": { "No": 262.0, "No_by_Stru": 4.0, "No_of_tri_": "I 20", "Name_by_St": "Ssafianowka", "Alt_names": null, "Lat_DMS": "45° 24'  32\"", "Lat_Dec": 45.408889, "Lon_DMS": "28° 52'  29\"", "Lon_Dec": 28.874722, "Country": "Ukraine", "UNESCO": 0.0, "Name_RU": "Сафьяновка" }, "geometry": { "type": "Point", "coordinates": [ 28.874722222222225, 45.408888888888889 ] } },
{ "type": "Feature", "properties": { "No": 261.0, "No_by_Stru": 5.0, "No_of_tri_": "I 19", "Name_by_St": "Kairaklia", "Alt_names": null, "Lat_DMS": "45° 28'  43\"", "Lat_Dec": 45.478611, "Lon_DMS": "28° 46'  35\"", "Lon_Dec": 28.776389, "Country": "Ukraine", "UNESCO": 0.0, "Name_RU": "Кайраклия" }, "geometry": { "type": "Point", "coordinates": [ 28.776388888888889, 45.478611111111114 ] } },
{ "type": "Feature", "properties": { "No": 260.0, "No_by_Stru": 6.0, "No_of_tri_": "I 18", "Name_by_St": "Taschbunar II", "Alt_names": null, "Lat_DMS": "45° 33'  55\"", "Lat_Dec": 45.565278, "Lon_DMS": "28° 50'  23\"", "Lon_Dec": 28.839722, "Country": "Ukraine", "UNESCO": 0.0, "Name_RU": "Ташбунар II" }, "geometry": { "type": "Point", "coordinates": [ 28.839722222222221, 45.56527777777778 ] } },
{ "type": "Feature", "properties": { "No": 259.0, "No_by_Stru": 7.0, "No_of_tri_": "I 17", "Name_by_St": "Katlabuch-ssuchoi", "Alt_names": null, "Lat_DMS": "45° 29'  33\"", "Lat_Dec": 45.4925, "Lon_DMS": "28° 54'  53\"", "Lon_Dec": 28.914722, "Country": "Ukraine", "UNESCO": 0.0, "Name_RU": "Катлабух Сухой" }, "geometry": { "type": "Point", "coordinates": [ 28.914722222222224, 45.4925 ] } },
{ "type": "Feature", "properties": { "No": 258.0, "No_by_Stru": 8.0, "No_of_tri_": "I 16", "Name_by_St": "Katlabuch", "Alt_names": null, "Lat_DMS": "45° 36'  43\"", "Lat_Dec": 45.611944, "Lon_DMS": "28° 55'  57\"", "Lon_Dec": 28.9325, "Country": "Ukraine", "UNESCO": 0.0, "Name_RU": "Катлабух" }, "geometry": { "type": "Point", "coordinates": [ 28.9325, 45.611944444444447 ] } },
{ "type": "Feature", "properties": { "No": 257.0, "No_by_Stru": 9.0, "No_of_tri_": "I 15", "Name_by_St": "Karakurt", "Alt_names": null, "Lat_DMS": "45° 37'  52\"", "Lat_Dec": 45.631111, "Lon_DMS": "28° 43'  36\"", "Lon_Dec": 28.726667, "Country": "Ukraine", "UNESCO": 0.0, "Name_RU": "Каракурт" }, "geometry": { "type": "Point", "coordinates": [ 28.72666666666667, 45.63111111111111 ] } },
{ "type": "Feature", "properties": { "No": 256.0, "No_by_Stru": 10.0, "No_of_tri_": "I 14", "Name_by_St": "Pandaklia", "Alt_names": null, "Lat_DMS": "45° 46'  56\"", "Lat_Dec": 45.782222, "Lon_DMS": "28° 54'  48\"", "Lon_Dec": 28.913333, "Country": "Ukraine", "UNESCO": 0.0, "Name_RU": "Пандаклия" }, "geometry": { "type": "Point", "coordinates": [ 28.913333333333334, 45.782222222222224 ] } },
{ "type": "Feature", "properties": { "No": 255.0, "No_by_Stru": 11.0, "No_of_tri_": "I 13", "Name_by_St": "Bolgrad", "Alt_names": "Bolhrad", "Lat_DMS": "45° 47'  39\"", "Lat_Dec": 45.794167, "Lon_DMS": "28° 39'  03\"", "Lon_Dec": 28.650833, "Country": "Moldova", "UNESCO": 0.0, "Name_RU": "Болград" }, "geometry": { "type": "Point", "coordinates": [ 28.650833333333338, 45.794166666666669 ] } },
{ "type": "Feature", "properties": { "No": 254.0, "No_by_Stru": 12.0, "No_of_tri_": "I 12", "Name_by_St": "Kamboli", "Alt_names": null, "Lat_DMS": "45° 58'  39\"", "Lat_Dec": 45.9775, "Lon_DMS": "28° 31'  12\"", "Lon_Dec": 28.52, "Country": "Moldova", "UNESCO": 0.0, "Name_RU": "Камболи" }, "geometry": { "type": "Point", "coordinates": [ 28.52, 45.9775 ] } },
{ "type": "Feature", "properties": { "No": 253.0, "No_by_Stru": 13.0, "No_of_tri_": "I 11", "Name_by_St": "Taraklia", "Alt_names": "Taraclia", "Lat_DMS": "45° 54'  58\"", "Lat_Dec": 45.916111, "Lon_DMS": "28° 45'  32\"", "Lon_Dec": 28.758889, "Country": "Moldova", "UNESCO": 0.0, "Name_RU": "Тараклия" }, "geometry": { "type": "Point", "coordinates": [ 28.758888888888887, 45.916111111111114 ] } },
{ "type": "Feature", "properties": { "No": 252.0, "No_by_Stru": 14.0, "No_of_tri_": "I 10", "Name_by_St": "Malojaroslawetzkaja", "Alt_names": "Malojaroslavec", "Lat_DMS": "46° 05'  21\"", "Lat_Dec": 46.089167, "Lon_DMS": "28° 58'  37\"", "Lon_Dec": 28.976944, "Country": "Ukraine", "UNESCO": 0.0, "Name_RU": "Малоярославецкая" }, "geometry": { "type": "Point", "coordinates": [ 28.976944444444445, 46.089166666666664 ] } },
{ "type": "Feature", "properties": { "No": 251.0, "No_by_Stru": 15.0, "No_of_tri_": "I  9", "Name_by_St": "Baurtschi", "Alt_names": "Baurci", "Lat_DMS": "46° 07'  02\"", "Lat_Dec": 46.117222, "Lon_DMS": "28° 42'  11\"", "Lon_Dec": 28.703056, "Country": "Moldova", "UNESCO": 0.0, "Name_RU": "Баурчи" }, "geometry": { "type": "Point", "coordinates": [ 28.703055555555554, 46.117222222222225 ] } },
{ "type": "Feature", "properties": { "No": 250.0, "No_by_Stru": 16.0, "No_of_tri_": "I  8", "Name_by_St": "Baschkalia", "Alt_names": "Bascalia", "Lat_DMS": "46° 19'  29\"", "Lat_Dec": 46.324722, "Lon_DMS": "28° 48'  33\"", "Lon_Dec": 28.809167, "Country": "Moldova", "UNESCO": 0.0, "Name_RU": "Башкалия" }, "geometry": { "type": "Point", "coordinates": [ 28.809166666666663, 46.324722222222221 ] } },
{ "type": "Feature", "properties": { "No": 249.0, "No_by_Stru": 17.0, "No_of_tri_": "I  7", "Name_by_St": "Kulmskaja", "Alt_names": null, "Lat_DMS": "46° 15'  43\"", "Lat_Dec": 46.261944, "Lon_DMS": "29° 01'  17\"", "Lon_Dec": 29.021389, "Country": "Ukraine", "UNESCO": 0.0, "Name_RU": "Кульмская" }, "geometry": { "type": "Point", "coordinates": [ 29.02138888888889, 46.261944444444445 ] } },
{ "type": "Feature", "properties": { "No": 248.0, "No_by_Stru": 18.0, "No_of_tri_": "I  6", "Name_by_St": "Nikolajewka", "Alt_names": "Mykolaivka", "Lat_DMS": "46° 20'  37\"", "Lat_Dec": 46.343611, "Lon_DMS": "29° 24'  57\"", "Lon_Dec": 29.415833, "Country": "Ukraine", "UNESCO": 0.0, "Name_RU": "Николаевка" }, "geometry": { "type": "Point", "coordinates": [ 29.415833333333332, 46.343611111111109 ] } },
{ "type": "Feature", "properties": { "No": 247.0, "No_by_Stru": 19.0, "No_of_tri_": "I  5", "Name_by_St": "Nesselrode", "Alt_names": null, "Lat_DMS": "46° 27'  52\"", "Lat_Dec": 46.464444, "Lon_DMS": "29° 06'  36\"", "Lon_Dec": 29.11, "Country": "Ukraine", "UNESCO": 0.0, "Name_RU": "Нессельроде" }, "geometry": { "type": "Point", "coordinates": [ 29.11, 46.464444444444446 ] } },
{ "type": "Feature", "properties": { "No": 246.0, "No_by_Stru": 20.0, "No_of_tri_": "I  4", "Name_by_St": "Nowokauschani", "Alt_names": "Causeni", "Lat_DMS": "46° 37'  18\"", "Lat_Dec": 46.621667, "Lon_DMS": "29° 27'  39\"", "Lon_Dec": 29.460833, "Country": "Moldova", "UNESCO": 0.0, "Name_RU": "Ново-Каушаны" }, "geometry": { "type": "Point", "coordinates": [ 29.460833333333337, 46.62166666666667 ] } },
{ "type": "Feature", "properties": { "No": 245.0, "No_by_Stru": 21.0, "No_of_tri_": "I  3", "Name_by_St": "Ploska", "Alt_names": null, "Lat_DMS": "47° 00'  60\"", "Lat_Dec": 47.016667, "Lon_DMS": "29° 38'  45\"", "Lon_Dec": 29.645833, "Country": "Ukraine", "UNESCO": 0.0, "Name_RU": "Плоска" }, "geometry": { "type": "Point", "coordinates": [ 29.645833333333332, 47.016666666666666 ] } },
{ "type": "Feature", "properties": { "No": 243.0, "No_by_Stru": 22.0, "No_of_tri_": "I  2", "Name_by_St": "Dschamana", "Alt_names": "Geamana", "Lat_DMS": "46° 47'  24\"", "Lat_Dec": 46.79, "Lon_DMS": "29° 12'  36\"", "Lon_Dec": 29.21, "Country": "Moldova", "UNESCO": 0.0, "Name_RU": "Джамана" }, "geometry": { "type": "Point", "coordinates": [ 29.21, 46.79 ] } },
{ "type": "Feature", "properties": { "No": 244.0, "No_by_Stru": 23.0, "No_of_tri_": "-", "Name_by_St": "Reseni", "Alt_names": "Razeni", "Lat_DMS": "46° 42'  58\"", "Lat_Dec": 46.716111, "Lon_DMS": "28° 52'  08\"", "Lon_Dec": 28.868889, "Country": "Moldova", "UNESCO": 0.0, "Name_RU": "Резени" }, "geometry": { "type": "Point", "coordinates": [ 28.868888888888886, 46.716111111111111 ] } },
{ "type": "Feature", "properties": { "No": 242.0, "No_by_Stru": 24.0, "No_of_tri_": "II1\/I1", "Name_by_St": "Wodolui", "Alt_names": "Vadul lui Voda", "Lat_DMS": "47° 01'  22\"", "Lat_Dec": 47.022778, "Lon_DMS": "29° 04'  16\"", "Lon_Dec": 29.071111, "Country": "Moldova", "UNESCO": 0.0, "Name_RU": "Водолуй" }, "geometry": { "type": "Point", "coordinates": [ 29.071111111111115, 47.022777777777776 ] } },
{ "type": "Feature", "properties": { "No": 239.0, "No_by_Stru": 25.0, "No_of_tri_": "II  4", "Name_by_St": "Ziganeschti", "Alt_names": "Tiganesti", "Lat_DMS": "47° 19'  05\"", "Lat_Dec": 47.318056, "Lon_DMS": "28° 32'  52\"", "Lon_Dec": 28.547778, "Country": "Moldova", "UNESCO": 0.0, "Name_RU": "Цыганешти" }, "geometry": { "type": "Point", "coordinates": [ 28.547777777777778, 47.318055555555553 ] } },
{ "type": "Feature", "properties": { "No": 241.0, "No_by_Stru": 25.0, "No_of_tri_": "II  2", "Name_by_St": "Ssurutscheni", "Alt_names": "Truseni", "Lat_DMS": "47° 03'  58\"", "Lat_Dec": 47.066111, "Lon_DMS": "28° 39'  27\"", "Lon_Dec": 28.6575, "Country": "Moldova", "UNESCO": 0.0, "Name_RU": "Суручены" }, "geometry": { "type": "Point", "coordinates": [ 28.6575, 47.066111111111113 ] } },
{ "type": "Feature", "properties": { "No": 238.0, "No_by_Stru": 26.0, "No_of_tri_": "II  5", "Name_by_St": "Bologan", "Alt_names": null, "Lat_DMS": "47° 27'  38\"", "Lat_Dec": 47.460556, "Lon_DMS": "28° 50'  02\"", "Lon_Dec": 28.833889, "Country": "Moldova", "UNESCO": 0.0, "Name_RU": "Бологан" }, "geometry": { "type": "Point", "coordinates": [ 28.83388888888889, 47.460555555555558 ] } },
{ "type": "Feature", "properties": { "No": 240.0, "No_by_Stru": 26.0, "No_of_tri_": "II  3", "Name_by_St": "Peressetschino", "Alt_names": "Peresecina", "Lat_DMS": "47° 15'  51\"", "Lat_Dec": 47.264167, "Lon_DMS": "28° 47'  28\"", "Lon_Dec": 28.791111, "Country": "Moldova", "UNESCO": 0.0, "Name_RU": "Пересечино" }, "geometry": { "type": "Point", "coordinates": [ 28.791111111111114, 47.264166666666668 ] } },
{ "type": "Feature", "properties": { "No": 237.0, "No_by_Stru": 27.0, "No_of_tri_": "II  6", "Name_by_St": "Sagaikani", "Alt_names": "Saratenii", "Lat_DMS": "47° 29'  37\"", "Lat_Dec": 47.493611, "Lon_DMS": "28° 31'  19\"", "Lon_Dec": 28.521944, "Country": "Moldova", "UNESCO": 0.0, "Name_RU": "Загайканы" }, "geometry": { "type": "Point", "coordinates": [ 28.521944444444447, 47.493611111111115 ] } },
{ "type": "Feature", "properties": { "No": 236.0, "No_by_Stru": 28.0, "No_of_tri_": "II  7", "Name_by_St": "Rospopeni", "Alt_names": "Rospopeni", "Lat_DMS": "47° 43'  30\"", "Lat_Dec": 47.725, "Lon_DMS": "28° 38'  19\"", "Lon_Dec": 28.638611, "Country": "Moldova", "UNESCO": 0.0, "Name_RU": "Распопени" }, "geometry": { "type": "Point", "coordinates": [ 28.638611111111111, 47.725 ] } },
{ "type": "Feature", "properties": { "No": 235.0, "No_by_Stru": 29.0, "No_of_tri_": "II  8", "Name_by_St": "Tschutuleschti", "Alt_names": "Ciutulesti", "Lat_DMS": "47° 45'  16\"", "Lat_Dec": 47.754444, "Lon_DMS": "28° 19'  29\"", "Lon_Dec": 28.324722, "Country": "Moldova", "UNESCO": 0.0, "Name_RU": "Четулешти" }, "geometry": { "type": "Point", "coordinates": [ 28.324722222222221, 47.754444444444445 ] } },
{ "type": "Feature", "properties": { "No": 234.0, "No_by_Stru": 30.0, "No_of_tri_": "II  9", "Name_by_St": "Unkiteschti", "Alt_names": null, "Lat_DMS": "47° 53'  44\"", "Lat_Dec": 47.895556, "Lon_DMS": "28° 29'  45\"", "Lon_Dec": 28.495833, "Country": "Moldova", "UNESCO": 0.0, "Name_RU": "Ункитешти" }, "geometry": { "type": "Point", "coordinates": [ 28.495833333333334, 47.895555555555553 ] } },
{ "type": "Feature", "properties": { "No": 233.0, "No_by_Stru": 31.0, "No_of_tri_": "II 10", "Name_by_St": "Wodeni", "Alt_names": "Vadeni", "Lat_DMS": "47° 59'  23\"", "Lat_Dec": 47.989722, "Lon_DMS": "28° 12'  47\"", "Lon_Dec": 28.213056, "Country": "Moldova", "UNESCO": 0.0, "Name_RU": "Водени" }, "geometry": { "type": "Point", "coordinates": [ 28.213055555555556, 47.98972222222222 ] } },
{ "type": "Feature", "properties": { "No": 232.0, "No_by_Stru": 32.0, "No_of_tri_": "II 11", "Name_by_St": "Belzy", "Alt_names": null, "Lat_DMS": "47° 50'  03\"", "Lat_Dec": 47.834167, "Lon_DMS": "27° 56'  54\"", "Lon_Dec": 27.948333, "Country": "Moldova", "UNESCO": 0.0, "Name_RU": "Бельцы" }, "geometry": { "type": "Point", "coordinates": [ 27.948333333333334, 47.834166666666668 ] } },
{ "type": "Feature", "properties": { "No": 231.0, "No_by_Stru": 33.0, "No_of_tri_": "II 12", "Name_by_St": "Ketros", "Alt_names": null, "Lat_DMS": "47° 59'  14\"", "Lat_Dec": 47.987222, "Lon_DMS": "27° 49'  21\"", "Lon_Dec": 27.8225, "Country": "Moldova", "UNESCO": 0.0, "Name_RU": "Кетросу" }, "geometry": { "type": "Point", "coordinates": [ 27.8225, 47.987222222222229 ] } },
{ "type": "Feature", "properties": { "No": 230.0, "No_by_Stru": 34.0, "No_of_tri_": "II 13", "Name_by_St": "Boksano", "Alt_names": null, "Lat_DMS": "48° 07'  17\"", "Lat_Dec": 48.121389, "Lon_DMS": "28° 04'  15\"", "Lon_Dec": 28.070833, "Country": "Moldova", "UNESCO": 0.0, "Name_RU": "Боксано" }, "geometry": { "type": "Point", "coordinates": [ 28.070833333333333, 48.121388888888887 ] } },
{ "type": "Feature", "properties": { "No": 229.0, "No_by_Stru": 35.0, "No_of_tri_": "II 14", "Name_by_St": "Tyrnowo", "Alt_names": "Tirnova", "Lat_DMS": "48° 09'  57\"", "Lat_Dec": 48.165833, "Lon_DMS": "27° 38'  26\"", "Lon_Dec": 27.640556, "Country": "Moldova", "UNESCO": 0.0, "Name_RU": "Тырново" }, "geometry": { "type": "Point", "coordinates": [ 27.640555555555554, 48.165833333333332 ] } },
{ "type": "Feature", "properties": { "No": 228.0, "No_by_Stru": 36.0, "No_of_tri_": "II 15", "Name_by_St": "Rudy", "Alt_names": "Rudi", "Lat_DMS": "48° 19'  08\"", "Lat_Dec": 48.318889, "Lon_DMS": "27° 52'  36\"", "Lon_Dec": 27.876667, "Country": "Moldova", "UNESCO": 30.0, "Name_RU": "Рудь" }, "geometry": { "type": "Point", "coordinates": [ 27.876666666666665, 48.318888888888885 ] } },
{ "type": "Feature", "properties": { "No": 227.0, "No_by_Stru": 37.0, "No_of_tri_": "II 16", "Name_by_St": "Lipnik", "Alt_names": "Lipnic", "Lat_DMS": "48° 22'  24\"", "Lat_Dec": 48.373333, "Lon_DMS": "27° 30'  50\"", "Lon_Dec": 27.513889, "Country": "Moldova", "UNESCO": 0.0, "Name_RU": "Липник" }, "geometry": { "type": "Point", "coordinates": [ 27.513888888888889, 48.373333333333335 ] } },
{ "type": "Feature", "properties": { "No": 226.0, "No_by_Stru": 38.0, "No_of_tri_": "II 17", "Name_by_St": "Rotunda", "Alt_names": null, "Lat_DMS": "48° 14'  27\"", "Lat_Dec": 48.240833, "Lon_DMS": "27° 19'  09\"", "Lon_Dec": 27.319167, "Country": "Moldova", "UNESCO": 0.0, "Name_RU": "Ротунда" }, "geometry": { "type": "Point", "coordinates": [ 27.319166666666668, 48.240833333333335 ] } },
{ "type": "Feature", "properties": { "No": 225.0, "No_by_Stru": 39.0, "No_of_tri_": "II 18", "Name_by_St": "Gwosdautzi", "Alt_names": null, "Lat_DMS": "48° 25'  45\"", "Lat_Dec": 48.429167, "Lon_DMS": "27° 18'  47\"", "Lon_Dec": 27.313056, "Country": "Moldova", "UNESCO": 0.0, "Name_RU": "Гвоздауцы" }, "geometry": { "type": "Point", "coordinates": [ 27.313055555555554, 48.429166666666667 ] } },
{ "type": "Feature", "properties": { "No": 224.0, "No_by_Stru": 40.0, "No_of_tri_": "II 19", "Name_by_St": "Britschani", "Alt_names": "Brinceni", "Lat_DMS": "48° 20'  39\"", "Lat_Dec": 48.344167, "Lon_DMS": "27° 07'  15\"", "Lon_Dec": 27.120833, "Country": "Moldova", "UNESCO": 0.0, "Name_RU": "Бричаны" }, "geometry": { "type": "Point", "coordinates": [ 27.120833333333334, 48.344166666666666 ] } },
{ "type": "Feature", "properties": { "No": 223.0, "No_by_Stru": 41.0, "No_of_tri_": "II 20", "Name_by_St": "Woltschenetz", "Alt_names": null, "Lat_DMS": "48° 28'  07\"", "Lat_Dec": 48.468611, "Lon_DMS": "26° 55'  05\"", "Lon_Dec": 26.918056, "Country": "Ukraine", "UNESCO": 0.0, "Name_RU": "Волченец" }, "geometry": { "type": "Point", "coordinates": [ 26.918055555555554, 48.468611111111109 ] } },
{ "type": "Feature", "properties": { "No": 222.0, "No_by_Stru": 42.0, "No_of_tri_": "II 21", "Name_by_St": "Sagorjane", "Alt_names": null, "Lat_DMS": "48° 44'  26\"", "Lat_Dec": 48.740556, "Lon_DMS": "27° 07'  10\"", "Lon_Dec": 27.119444, "Country": "Ukraine", "UNESCO": 0.0, "Name_RU": "Загоряне" }, "geometry": { "type": "Point", "coordinates": [ 27.119444444444444, 48.740555555555552 ] } },
{ "type": "Feature", "properties": { "No": 221.0, "No_by_Stru": 45.0, "No_of_tri_": "III17\/II22", "Name_by_St": "Ssuprunkowzi", "Alt_names": null, "Lat_DMS": "48° 45'  03\"", "Lat_Dec": 48.750833, "Lon_DMS": "26° 47'  52\"", "Lon_Dec": 26.797778, "Country": "Ukraine", "UNESCO": 0.0, "Name_RU": "Супрунковцы" }, "geometry": { "type": "Point", "coordinates": [ 26.797777777777778, 48.750833333333333 ] } },
{ "type": "Feature", "properties": { "No": 220.0, "No_by_Stru": 46.0, "No_of_tri_": "III 16", "Name_by_St": "Karatschkowzi", "Alt_names": null, "Lat_DMS": "48° 53'  49\"", "Lat_Dec": 48.896944, "Lon_DMS": "26° 32'  51\"", "Lon_Dec": 26.5475, "Country": "Ukraine", "UNESCO": 0.0, "Name_RU": "Карачковцы" }, "geometry": { "type": "Point", "coordinates": [ 26.5475, 48.896944444444451 ] } },
{ "type": "Feature", "properties": { "No": 219.0, "No_by_Stru": 47.0, "No_of_tri_": "III 15", "Name_by_St": "Hanowka", "Alt_names": null, "Lat_DMS": "48° 55'  45\"", "Lat_Dec": 48.929167, "Lon_DMS": "26° 51'  32\"", "Lon_Dec": 26.858889, "Country": "Ukraine", "UNESCO": 0.0, "Name_RU": "Гановка" }, "geometry": { "type": "Point", "coordinates": [ 26.858888888888888, 48.929166666666667 ] } },
{ "type": "Feature", "properties": { "No": 218.0, "No_by_Stru": 48.0, "No_of_tri_": "III 14", "Name_by_St": "Baranowka", "Alt_names": null, "Lat_DMS": "49° 08'  55\"", "Lat_Dec": 49.148611, "Lon_DMS": "26° 59'  30\"", "Lon_Dec": 26.991667, "Country": "Ukraine", "UNESCO": 33.0, "Name_RU": "Барановка" }, "geometry": { "type": "Point", "coordinates": [ 26.991666666666671, 49.148611111111109 ] } },
{ "type": "Feature", "properties": { "No": 217.0, "No_by_Stru": 49.0, "No_of_tri_": "III 13", "Name_by_St": "Tschernowody", "Alt_names": "Cornyvody", "Lat_DMS": "49° 08'  05\"", "Lat_Dec": 49.134722, "Lon_DMS": "26° 38'  00\"", "Lon_Dec": 26.633333, "Country": "Ukraine", "UNESCO": 0.0, "Name_RU": "Черноводы" }, "geometry": { "type": "Point", "coordinates": [ 26.633333333333336, 49.134722222222223 ] } },
{ "type": "Feature", "properties": { "No": 216.0, "No_by_Stru": 50.0, "No_of_tri_": "III 12", "Name_by_St": "Alexandrowka", "Alt_names": "Oleksandrivka", "Lat_DMS": "49° 16'  41\"", "Lat_Dec": 49.278056, "Lon_DMS": "26° 18'  60\"", "Lon_Dec": 26.316667, "Country": "Ukraine", "UNESCO": 0.0, "Name_RU": "Александровка" }, "geometry": { "type": "Point", "coordinates": [ 26.316666666666666, 49.278055555555554 ] } },
{ "type": "Feature", "properties": { "No": 215.0, "No_by_Stru": 51.0, "No_of_tri_": "III 11", "Name_by_St": "Felschtin", "Alt_names": null, "Lat_DMS": "49° 19'  48\"", "Lat_Dec": 49.33, "Lon_DMS": "26° 40'  55\"", "Lon_Dec": 26.681944, "Country": "Ukraine", "UNESCO": 32.0, "Name_RU": "Фельштин" }, "geometry": { "type": "Point", "coordinates": [ 26.681944444444447, 49.33 ] } },
{ "type": "Feature", "properties": { "No": 214.0, "No_by_Stru": 52.0, "No_of_tri_": "III 10", "Name_by_St": "Kriwotschinzi", "Alt_names": null, "Lat_DMS": "49° 29'  06\"", "Lat_Dec": 49.485, "Lon_DMS": "26° 27'  33\"", "Lon_Dec": 26.459167, "Country": "Ukraine", "UNESCO": 0.0, "Name_RU": "Кривочинцы" }, "geometry": { "type": "Point", "coordinates": [ 26.459166666666668, 49.485 ] } },
{ "type": "Feature", "properties": { "No": 213.0, "No_by_Stru": 53.0, "No_of_tri_": "III  9", "Name_by_St": "Katerinowka", "Alt_names": null, "Lat_DMS": "49° 33'  57\"", "Lat_Dec": 49.565833, "Lon_DMS": "26° 45'  22\"", "Lon_Dec": 26.756111, "Country": "Ukraine", "UNESCO": 31.0, "Name_RU": "Катериновка" }, "geometry": { "type": "Point", "coordinates": [ 26.75611111111111, 49.56583333333333 ] } },
{ "type": "Feature", "properties": { "No": 212.0, "No_by_Stru": 54.0, "No_of_tri_": "III  8", "Name_by_St": "Montschinzi", "Alt_names": null, "Lat_DMS": "49° 43'  48\"", "Lat_Dec": 49.73, "Lon_DMS": "26° 48'  21\"", "Lon_Dec": 26.805833, "Country": "Ukraine", "UNESCO": 0.0, "Name_RU": "Мончинцы" }, "geometry": { "type": "Point", "coordinates": [ 26.805833333333332, 49.73 ] } },
{ "type": "Feature", "properties": { "No": 211.0, "No_by_Stru": 55.0, "No_of_tri_": "III  7", "Name_by_St": "Basalia", "Alt_names": "Bazalija", "Lat_DMS": "49° 41'  22\"", "Lat_Dec": 49.689444, "Lon_DMS": "26° 28'  58\"", "Lon_Dec": 26.482778, "Country": "Ukraine", "UNESCO": 0.0, "Name_RU": "Базалия" }, "geometry": { "type": "Point", "coordinates": [ 26.482777777777777, 49.689444444444447 ] } },
{ "type": "Feature", "properties": { "No": 210.0, "No_by_Stru": 56.0, "No_of_tri_": "III  6", "Name_by_St": "Turowka", "Alt_names": null, "Lat_DMS": "49° 52'  41\"", "Lat_Dec": 49.878056, "Lon_DMS": "26° 30'  39\"", "Lon_Dec": 26.510833, "Country": "Ukraine", "UNESCO": 0.0, "Name_RU": "Туровка" }, "geometry": { "type": "Point", "coordinates": [ 26.510833333333338, 49.878055555555555 ] } },
{ "type": "Feature", "properties": { "No": 209.0, "No_by_Stru": 57.0, "No_of_tri_": "III  5", "Name_by_St": "Beloserka", "Alt_names": "Bilozirka", "Lat_DMS": "49° 46'  15\"", "Lat_Dec": 49.770833, "Lon_DMS": "26° 14'  08\"", "Lon_Dec": 26.235556, "Country": "Ukraine", "UNESCO": 0.0, "Name_RU": "Белозёрка" }, "geometry": { "type": "Point", "coordinates": [ 26.235555555555557, 49.770833333333343 ] } },
{ "type": "Feature", "properties": { "No": 208.0, "No_by_Stru": 58.0, "No_of_tri_": "III  4", "Name_by_St": "Ssiwki", "Alt_names": "Syvky", "Lat_DMS": "50° 01'  29\"", "Lat_Dec": 50.024722, "Lon_DMS": "26° 15'  56\"", "Lon_Dec": 26.265556, "Country": "Ukraine", "UNESCO": 0.0, "Name_RU": "Сивки" }, "geometry": { "type": "Point", "coordinates": [ 26.265555555555558, 50.024722222222223 ] } },
{ "type": "Feature", "properties": { "No": 206.0, "No_by_Stru": 59.0, "No_of_tri_": "III  2", "Name_by_St": "Matwejewzi", "Alt_names": "Matviivci", "Lat_DMS": "49° 58'  15\"", "Lat_Dec": 49.970833, "Lon_DMS": "25° 58'  36\"", "Lon_Dec": 25.976667, "Country": "Ukraine", "UNESCO": 0.0, "Name_RU": "Матвеевцы" }, "geometry": { "type": "Point", "coordinates": [ 25.976666666666667, 49.970833333333331 ] } },
{ "type": "Feature", "properties": { "No": 207.0, "No_by_Stru": 59.0, "No_of_tri_": "III  3", "Name_by_St": "Mosty", "Alt_names": null, "Lat_DMS": "50° 11'  50\"", "Lat_Dec": 50.197222, "Lon_DMS": "26° 00'  03\"", "Lon_Dec": 26.000833, "Country": "Ukraine", "UNESCO": 0.0, "Name_RU": "Мосты" }, "geometry": { "type": "Point", "coordinates": [ 26.000833333333333, 50.197222222222223 ] } },
{ "type": "Feature", "properties": { "No": 205.0, "No_by_Stru": 61.0, "No_of_tri_": "IV18\/III1", "Name_by_St": "Kremenetz", "Alt_names": null, "Lat_DMS": "50° 05'  45\"", "Lat_Dec": 50.095833, "Lon_DMS": "25° 41'  47\"", "Lon_Dec": 25.696389, "Country": "Ukraine", "UNESCO": 0.0, "Name_RU": "Кременец" }, "geometry": { "type": "Point", "coordinates": [ 25.69638888888889, 50.095833333333331 ] } },
{ "type": "Feature", "properties": { "No": 204.0, "No_by_Stru": 62.0, "No_of_tri_": "IV 17", "Name_by_St": "Gurniki", "Alt_names": null, "Lat_DMS": "50° 23'  05\"", "Lat_Dec": 50.384722, "Lon_DMS": "25° 50'  40\"", "Lon_Dec": 25.844444, "Country": "Ukraine", "UNESCO": 0.0, "Name_RU": "Гурники" }, "geometry": { "type": "Point", "coordinates": [ 25.844444444444445, 50.384722222222223 ] } },
{ "type": "Feature", "properties": { "No": 203.0, "No_by_Stru": 63.0, "No_of_tri_": "IV 16", "Name_by_St": "Borbin", "Alt_names": null, "Lat_DMS": "50° 40'  21\"", "Lat_Dec": 50.6725, "Lon_DMS": "25° 44'  31\"", "Lon_Dec": 25.741944, "Country": "Ukraine", "UNESCO": 0.0, "Name_RU": "Борбин" }, "geometry": { "type": "Point", "coordinates": [ 25.741944444444446, 50.6725 ] } },
{ "type": "Feature", "properties": { "No": 202.0, "No_by_Stru": 64.0, "No_of_tri_": "IV 15", "Name_by_St": "Smordwa", "Alt_names": null, "Lat_DMS": "50° 25'  19\"", "Lat_Dec": 50.421944, "Lon_DMS": "25° 30'  55\"", "Lon_Dec": 25.515278, "Country": "Ukraine", "UNESCO": 0.0, "Name_RU": "Смордва" }, "geometry": { "type": "Point", "coordinates": [ 25.515277777777779, 50.421944444444442 ] } },
{ "type": "Feature", "properties": { "No": 201.0, "No_by_Stru": 65.0, "No_of_tri_": "IV 14", "Name_by_St": "Schabtscha", "Alt_names": null, "Lat_DMS": "50° 27'  48\"", "Lat_Dec": 50.463333, "Lon_DMS": "25° 07'  23\"", "Lon_Dec": 25.123056, "Country": "Ukraine", "UNESCO": 0.0, "Name_RU": "Жабча" }, "geometry": { "type": "Point", "coordinates": [ 25.123055555555556, 50.463333333333331 ] } },
{ "type": "Feature", "properties": { "No": 200.0, "No_by_Stru": 66.0, "No_of_tri_": "IV 13", "Name_by_St": "Krupi", "Alt_names": null, "Lat_DMS": "50° 41'  04\"", "Lat_Dec": 50.684444, "Lon_DMS": "25° 24'  45\"", "Lon_Dec": 25.4125, "Country": "Ukraine", "UNESCO": 0.0, "Name_RU": "Крупы" }, "geometry": { "type": "Point", "coordinates": [ 25.4125, 50.684444444444445 ] } },
{ "type": "Feature", "properties": { "No": 199.0, "No_by_Stru": 67.0, "No_of_tri_": "IV 12", "Name_by_St": "Tortschin", "Alt_names": "Torcyn", "Lat_DMS": "50° 44'  03\"", "Lat_Dec": 50.734167, "Lon_DMS": "24° 59'  34\"", "Lon_Dec": 24.992778, "Country": "Ukraine", "UNESCO": 0.0, "Name_RU": "Торчин" }, "geometry": { "type": "Point", "coordinates": [ 24.992777777777778, 50.734166666666667 ] } },
{ "type": "Feature", "properties": { "No": 198.0, "No_by_Stru": 68.0, "No_of_tri_": "IV 11", "Name_by_St": "Roschischtsche", "Alt_names": "Rozysce", "Lat_DMS": "50° 55'  45\"", "Lat_Dec": 50.929167, "Lon_DMS": "25° 15'  56\"", "Lon_Dec": 25.265556, "Country": "Ukraine", "UNESCO": 0.0, "Name_RU": "Рожище" }, "geometry": { "type": "Point", "coordinates": [ 25.265555555555554, 50.929166666666667 ] } },
{ "type": "Feature", "properties": { "No": 197.0, "No_by_Stru": 69.0, "No_of_tri_": "IV 10", "Name_by_St": "Osmigowitschi", "Alt_names": "Os'myhovyci", "Lat_DMS": "50° 54'  33\"", "Lat_Dec": 50.909167, "Lon_DMS": "24° 46'  41\"", "Lon_Dec": 24.778056, "Country": "Ukraine", "UNESCO": 0.0, "Name_RU": "Осмиговичи" }, "geometry": { "type": "Point", "coordinates": [ 24.778055555555557, 50.909166666666664 ] } },
{ "type": "Feature", "properties": { "No": 196.0, "No_by_Stru": 70.0, "No_of_tri_": "IV  9", "Name_by_St": "Golobi", "Alt_names": "Holoby", "Lat_DMS": "51° 06'  50\"", "Lat_Dec": 51.113889, "Lon_DMS": "24° 59'  46\"", "Lon_Dec": 24.996111, "Country": "Ukraine", "UNESCO": 0.0, "Name_RU": "Голобы" }, "geometry": { "type": "Point", "coordinates": [ 24.996111111111116, 51.113888888888894 ] } },
{ "type": "Feature", "properties": { "No": 195.0, "No_by_Stru": 71.0, "No_of_tri_": "IV  8", "Name_by_St": "Kowel", "Alt_names": null, "Lat_DMS": "51° 14'  49\"", "Lat_Dec": 51.246944, "Lon_DMS": "24° 42'  57\"", "Lon_Dec": 24.715833, "Country": "Ukraine", "UNESCO": 0.0, "Name_RU": "Ковель" }, "geometry": { "type": "Point", "coordinates": [ 24.715833333333332, 51.246944444444445 ] } },
{ "type": "Feature", "properties": { "No": 194.0, "No_by_Stru": 72.0, "No_of_tri_": "IV  7", "Name_by_St": "Datin", "Alt_names": null, "Lat_DMS": "51° 31'  10\"", "Lat_Dec": 51.519444, "Lon_DMS": "24° 43'  03\"", "Lon_Dec": 24.7175, "Country": "Ukraine", "UNESCO": 0.0, "Name_RU": "Датин" }, "geometry": { "type": "Point", "coordinates": [ 24.7175, 51.519444444444453 ] } },
{ "type": "Feature", "properties": { "No": 193.0, "No_by_Stru": 73.0, "No_of_tri_": "IV  6", "Name_by_St": "Tscheremoschna", "Alt_names": null, "Lat_DMS": "51° 20'  11\"", "Lat_Dec": 51.336389, "Lon_DMS": "25° 03'  53\"", "Lon_Dec": 25.064722, "Country": "Ukraine", "UNESCO": 0.0, "Name_RU": "Черемошна" }, "geometry": { "type": "Point", "coordinates": [ 25.064722222222223, 51.336388888888891 ] } },
{ "type": "Feature", "properties": { "No": 192.0, "No_by_Stru": 74.0, "No_of_tri_": "IV  5", "Name_by_St": "Gutakamenskaja", "Alt_names": null, "Lat_DMS": "51° 34'  45\"", "Lat_Dec": 51.579167, "Lon_DMS": "25° 01'  54\"", "Lon_Dec": 25.031667, "Country": "Ukraine", "UNESCO": 0.0, "Name_RU": "Гутакаменская" }, "geometry": { "type": "Point", "coordinates": [ 25.031666666666666, 51.579166666666666 ] } },
{ "type": "Feature", "properties": { "No": 191.0, "No_by_Stru": 75.0, "No_of_tri_": "IV  4", "Name_by_St": "Tscherwischtsche", "Alt_names": null, "Lat_DMS": "51° 34'  55\"", "Lat_Dec": 51.581944, "Lon_DMS": "25° 24'  52\"", "Lon_Dec": 25.414444, "Country": "Ukraine", "UNESCO": 0.0, "Name_RU": "Червище" }, "geometry": { "type": "Point", "coordinates": [ 25.414444444444445, 51.581944444444446 ] } },
{ "type": "Feature", "properties": { "No": 189.0, "No_by_Stru": 76.0, "No_of_tri_": "IV  2", "Name_by_St": "Bolschaja-Gluscha", "Alt_names": null, "Lat_DMS": "51° 48'  31\"", "Lat_Dec": 51.808611, "Lon_DMS": "25° 01'  46\"", "Lon_Dec": 25.029444, "Country": "Ukraine", "UNESCO": 0.0, "Name_RU": "Большая Глуша" }, "geometry": { "type": "Point", "coordinates": [ 25.029444444444444, 51.808611111111112 ] } },
{ "type": "Feature", "properties": { "No": 190.0, "No_by_Stru": 77.0, "No_of_tri_": "IV  3", "Name_by_St": "Schlapan", "Alt_names": null, "Lat_DMS": "51° 52'  27\"", "Lat_Dec": 51.874167, "Lon_DMS": "25° 28'  26\"", "Lon_Dec": 25.473889, "Country": "Ukraine", "UNESCO": 0.0, "Name_RU": "Шляпан" }, "geometry": { "type": "Point", "coordinates": [ 25.473888888888894, 51.874166666666667 ] } },
{ "type": "Feature", "properties": { "No": 188.0, "No_by_Stru": 78.0, "No_of_tri_": "V1\/IV1", "Name_by_St": "Belin", "Alt_names": null, "Lat_DMS": "52° 02'  39\"", "Lat_Dec": 52.044167, "Lon_DMS": "25° 13'  03\"", "Lon_Dec": 25.2175, "Country": "Belarus", "UNESCO": 0.0, "Name_RU": "Белин" }, "geometry": { "type": "Point", "coordinates": [ 25.2175, 52.044166666666669 ] } },
{ "type": "Feature", "properties": { "No": 185.0, "No_by_Stru": 79.0, "No_of_tri_": "V  4", "Name_by_St": "Ossownitza", "Alt_names": null, "Lat_DMS": "52° 17'  22\"", "Lat_Dec": 52.289444, "Lon_DMS": "25° 38'  58\"", "Lon_Dec": 25.649444, "Country": "Belarus", "UNESCO": 27.0, "Name_RU": "Осовница" }, "geometry": { "type": "Point", "coordinates": [ 25.649444444444445, 52.289444444444442 ] } },
{ "type": "Feature", "properties": { "No": 186.0, "No_by_Stru": 79.0, "No_of_tri_": "V  3", "Name_by_St": "Leskowitschi", "Alt_names": "Leskovichi", "Lat_DMS": "52° 09'  39\"", "Lat_Dec": 52.160833, "Lon_DMS": "25° 34'  17\"", "Lon_Dec": 25.571389, "Country": "Belarus", "UNESCO": 29.0, "Name_RU": "Лесковичи" }, "geometry": { "type": "Point", "coordinates": [ 25.57138888888889, 52.160833333333336 ] } },
{ "type": "Feature", "properties": { "No": 183.0, "No_by_Stru": 80.0, "No_of_tri_": "V  5", "Name_by_St": "Gath", "Alt_names": null, "Lat_DMS": "52° 34'  05\"", "Lat_Dec": 52.568056, "Lon_DMS": "25° 37'  12\"", "Lon_Dec": 25.62, "Country": "Belarus", "UNESCO": 0.0, "Name_RU": "Гать" }, "geometry": { "type": "Point", "coordinates": [ 25.62, 52.568055555555553 ] } },
{ "type": "Feature", "properties": { "No": 187.0, "No_by_Stru": 80.0, "No_of_tri_": "V  2", "Name_by_St": "Besdesch", "Alt_names": null, "Lat_DMS": "52° 19'  31\"", "Lat_Dec": 52.325278, "Lon_DMS": "25° 17'  07\"", "Lon_Dec": 25.285278, "Country": "Belarus", "UNESCO": 0.0, "Name_RU": "Бездеж" }, "geometry": { "type": "Point", "coordinates": [ 25.285277777777782, 52.325277777777778 ] } },
{ "type": "Feature", "properties": { "No": 182.0, "No_by_Stru": 81.0, "No_of_tri_": "V  6", "Name_by_St": "Bronna", "Alt_names": null, "Lat_DMS": "52° 35'  59\"", "Lat_Dec": 52.599722, "Lon_DMS": "25° 05'  11\"", "Lon_Dec": 25.086389, "Country": "Belarus", "UNESCO": 0.0, "Name_RU": "Бронна" }, "geometry": { "type": "Point", "coordinates": [ 25.086388888888887, 52.599722222222219 ] } },
{ "type": "Feature", "properties": { "No": 180.0, "No_by_Stru": 82.0, "No_of_tri_": "V  7", "Name_by_St": "Iwazewitschi", "Alt_names": null, "Lat_DMS": "52° 43'  28\"", "Lat_Dec": 52.724444, "Lon_DMS": "25° 19'  16\"", "Lon_Dec": 25.321111, "Country": "Belarus", "UNESCO": 0.0, "Name_RU": "Ивацевичи" }, "geometry": { "type": "Point", "coordinates": [ 25.321111111111112, 52.724444444444444 ] } },
{ "type": "Feature", "properties": { "No": 179.0, "No_by_Stru": 83.0, "No_of_tri_": "V  8", "Name_by_St": "Schomeizaki", "Alt_names": null, "Lat_DMS": "52° 46'  50\"", "Lat_Dec": 52.780556, "Lon_DMS": "25° 03'  37\"", "Lon_Dec": 25.060278, "Country": "Belarus", "UNESCO": 0.0, "Name_RU": "Жомейцяки" }, "geometry": { "type": "Point", "coordinates": [ 25.060277777777777, 52.780555555555559 ] } },
{ "type": "Feature", "properties": { "No": 178.0, "No_by_Stru": 84.0, "No_of_tri_": "V  9", "Name_by_St": "Marinus", "Alt_names": null, "Lat_DMS": "52° 56'  17\"", "Lat_Dec": 52.938056, "Lon_DMS": "25° 30'  33\"", "Lon_Dec": 25.509167, "Country": "Belarus", "UNESCO": 0.0, "Name_RU": "Маринус" }, "geometry": { "type": "Point", "coordinates": [ 25.509166666666665, 52.938055555555557 ] } },
{ "type": "Feature", "properties": { "No": 177.0, "No_by_Stru": 85.0, "No_of_tri_": "V 10", "Name_by_St": "Rinki", "Alt_names": null, "Lat_DMS": "53° 04'  19\"", "Lat_Dec": 53.071944, "Lon_DMS": "25° 09'  03\"", "Lon_Dec": 25.150833, "Country": "Belarus", "UNESCO": 0.0, "Name_RU": "Ринки" }, "geometry": { "type": "Point", "coordinates": [ 25.150833333333335, 53.071944444444448 ] } },
{ "type": "Feature", "properties": { "No": 176.0, "No_by_Stru": 86.0, "No_of_tri_": "V 11", "Name_by_St": "Dsergeli", "Alt_names": null, "Lat_DMS": "53° 05'  49\"", "Lat_Dec": 53.096944, "Lon_DMS": "24° 45'  19\"", "Lon_Dec": 24.755278, "Country": "Belarus", "UNESCO": 0.0, "Name_RU": "Дзергели" }, "geometry": { "type": "Point", "coordinates": [ 24.755277777777778, 53.096944444444446 ] } },
{ "type": "Feature", "properties": { "No": 175.0, "No_by_Stru": 87.0, "No_of_tri_": "V 12", "Name_by_St": "Solotejewo", "Alt_names": null, "Lat_DMS": "53° 14'  48\"", "Lat_Dec": 53.246667, "Lon_DMS": "24° 52'  29\"", "Lon_Dec": 24.874722, "Country": "Belarus", "UNESCO": 0.0, "Name_RU": "Золотеево" }, "geometry": { "type": "Point", "coordinates": [ 24.874722222222221, 53.24666666666667 ] } },
{ "type": "Feature", "properties": { "No": 174.0, "No_by_Stru": 88.0, "No_of_tri_": "V 13", "Name_by_St": "Tarassowzi", "Alt_names": null, "Lat_DMS": "53° 25'  15\"", "Lat_Dec": 53.420833, "Lon_DMS": "25° 26'  37\"", "Lon_Dec": 25.443611, "Country": "Belarus", "UNESCO": 0.0, "Name_RU": "Тарасовцы" }, "geometry": { "type": "Point", "coordinates": [ 25.44361111111111, 53.420833333333334 ] } },
{ "type": "Feature", "properties": { "No": 173.0, "No_by_Stru": 89.0, "No_of_tri_": "V 14", "Name_by_St": "Lopati", "Alt_names": null, "Lat_DMS": "53° 33'  38\"", "Lat_Dec": 53.560556, "Lon_DMS": "24° 52'  11\"", "Lon_Dec": 24.869722, "Country": "Belarus", "UNESCO": 26.0, "Name_RU": "Лопаты" }, "geometry": { "type": "Point", "coordinates": [ 24.869722222222222, 53.560555555555553 ] } },
{ "type": "Feature", "properties": { "No": 172.0, "No_by_Stru": 90.0, "No_of_tri_": "V 15", "Name_by_St": "Falkowtschisna", "Alt_names": null, "Lat_DMS": "53° 44'  12\"", "Lat_Dec": 53.736667, "Lon_DMS": "25° 15'  53\"", "Lon_Dec": 25.264722, "Country": "Belarus", "UNESCO": 0.0, "Name_RU": "Фальковщиэна" }, "geometry": { "type": "Point", "coordinates": [ 25.264722222222225, 53.736666666666665 ] } },
{ "type": "Feature", "properties": { "No": 171.0, "No_by_Stru": 91.0, "No_of_tri_": "V 16", "Name_by_St": "Putzewitschi", "Alt_names": null, "Lat_DMS": "53° 36'  07\"", "Lat_Dec": 53.601944, "Lon_DMS": "25° 46'  25\"", "Lon_Dec": 25.773611, "Country": "Belarus", "UNESCO": 0.0, "Name_RU": "Пуцевичи" }, "geometry": { "type": "Point", "coordinates": [ 25.773611111111112, 53.601944444444442 ] } },
{ "type": "Feature", "properties": { "No": 170.0, "No_by_Stru": 92.0, "No_of_tri_": "V 17", "Name_by_St": "Dokudowo", "Alt_names": null, "Lat_DMS": "53° 48'  50\"", "Lat_Dec": 53.813889, "Lon_DMS": "25° 30'  37\"", "Lon_Dec": 25.510278, "Country": "Belarus", "UNESCO": 0.0, "Name_RU": "Докудово" }, "geometry": { "type": "Point", "coordinates": [ 25.510277777777777, 53.81388888888889 ] } },
{ "type": "Feature", "properties": { "No": 169.0, "No_by_Stru": 93.0, "No_of_tri_": "V 18", "Name_by_St": "Amalienhof", "Alt_names": null, "Lat_DMS": "53° 42'  52\"", "Lat_Dec": 53.714444, "Lon_DMS": "25° 51'  35\"", "Lon_Dec": 25.859722, "Country": "Belarus", "UNESCO": 0.0, "Name_RU": "Амалиенгоф" }, "geometry": { "type": "Point", "coordinates": [ 25.859722222222221, 53.714444444444446 ] } },
{ "type": "Feature", "properties": { "No": 167.0, "No_by_Stru": 94.0, "No_of_tri_": "V 19", "Name_by_St": "Iwje", "Alt_names": null, "Lat_DMS": "53° 58'  27\"", "Lat_Dec": 53.974167, "Lon_DMS": "25° 44'  37\"", "Lon_Dec": 25.743611, "Country": "Belarus", "UNESCO": 0.0, "Name_RU": "Ивье" }, "geometry": { "type": "Point", "coordinates": [ 25.743611111111111, 53.974166666666669 ] } },
{ "type": "Feature", "properties": { "No": 166.0, "No_by_Stru": 95.0, "No_of_tri_": "V 20", "Name_by_St": "Daukni", "Alt_names": null, "Lat_DMS": "54° 02'  51\"", "Lat_Dec": 54.0475, "Lon_DMS": "25° 26'  35\"", "Lon_Dec": 25.443056, "Country": "Belarus", "UNESCO": 0.0, "Name_RU": "Даукны" }, "geometry": { "type": "Point", "coordinates": [ 25.443055555555556, 54.0475 ] } },
{ "type": "Feature", "properties": { "No": 165.0, "No_by_Stru": 96.0, "No_of_tri_": "V 21", "Name_by_St": "Widnopol", "Alt_names": null, "Lat_DMS": "54° 07'  24\"", "Lat_Dec": 54.123333, "Lon_DMS": "25° 52'  18\"", "Lon_Dec": 25.871667, "Country": "Belarus", "UNESCO": 0.0, "Name_RU": "Виднополь" }, "geometry": { "type": "Point", "coordinates": [ 25.871666666666666, 54.123333333333335 ] } },
{ "type": "Feature", "properties": { "No": 164.0, "No_by_Stru": 97.0, "No_of_tri_": "V 22", "Name_by_St": "Loitzi", "Alt_names": null, "Lat_DMS": "54° 18'  31\"", "Lat_Dec": 54.308611, "Lon_DMS": "25° 48'  07\"", "Lon_Dec": 25.801944, "Country": "Belarus", "UNESCO": 0.0, "Name_RU": "Лойцы" }, "geometry": { "type": "Point", "coordinates": [ 25.801944444444445, 54.308611111111119 ] } },
{ "type": "Feature", "properties": { "No": 163.0, "No_by_Stru": 98.0, "No_of_tri_": "V 23", "Name_by_St": "Tupischki", "Alt_names": null, "Lat_DMS": "54° 17'  30\"", "Lat_Dec": 54.291667, "Lon_DMS": "26° 02'  43\"", "Lon_Dec": 26.045278, "Country": "Belarus", "UNESCO": 25.0, "Name_RU": "Тупишки" }, "geometry": { "type": "Point", "coordinates": [ 26.045277777777777, 54.291666666666664 ] } },
{ "type": "Feature", "properties": { "No": 162.0, "No_by_Stru": 99.0, "No_of_tri_": "V 24", "Name_by_St": "Deibissi", "Alt_names": null, "Lat_DMS": "54° 31'  32\"", "Lat_Dec": 54.525556, "Lon_DMS": "25° 56'  02\"", "Lon_Dec": 25.933889, "Country": "Belarus", "UNESCO": 0.0, "Name_RU": "Дейбиси" }, "geometry": { "type": "Point", "coordinates": [ 25.933888888888887, 54.525555555555556 ] } },
{ "type": "Feature", "properties": { "No": 161.0, "No_by_Stru": 100.0, "No_of_tri_": "V 25", "Name_by_St": "Medniki", "Alt_names": "Medininkai", "Lat_DMS": "54° 31'  52\"", "Lat_Dec": 54.531111, "Lon_DMS": "25° 37'  40\"", "Lon_Dec": 25.627778, "Country": "Lithuania", "UNESCO": 0.0, "Name_RU": "Медники" }, "geometry": { "type": "Point", "coordinates": [ 25.627777777777776, 54.531111111111109 ] } },
{ "type": "Feature", "properties": { "No": 160.0, "No_by_Stru": 101.0, "No_of_tri_": "V 26", "Name_by_St": "Konradi", "Alt_names": null, "Lat_DMS": "54° 42'  09\"", "Lat_Dec": 54.7025, "Lon_DMS": "25° 45'  48\"", "Lon_Dec": 25.763333, "Country": "Belarus", "UNESCO": 0.0, "Name_RU": "Конрады" }, "geometry": { "type": "Point", "coordinates": [ 25.763333333333332, 54.7025 ] } },
{ "type": "Feature", "properties": { "No": 159.0, "No_by_Stru": 102.0, "No_of_tri_": "V 27", "Name_by_St": "Beresnaki", "Alt_names": "Paliepiukai", "Lat_DMS": "54° 38'  04\"", "Lat_Dec": 54.634444, "Lon_DMS": "25° 25'  45\"", "Lon_Dec": 25.429167, "Country": "Lithuania", "UNESCO": 24.0, "Name_RU": "Березняки" }, "geometry": { "type": "Point", "coordinates": [ 25.429166666666667, 54.634444444444448 ] } },
{ "type": "Feature", "properties": { "No": 157.0, "No_by_Stru": 104.0, "No_of_tri_": "VI1\/V29", "Name_by_St": "Nemesch", "Alt_names": "Nemezis (Nemez)", "Lat_DMS": "54° 39'  01\"", "Lat_Dec": 54.650278, "Lon_DMS": "25° 19'  00\"", "Lon_Dec": 25.316667, "Country": "Lithuania", "UNESCO": 0.0, "Name_RU": "Немеж" }, "geometry": { "type": "Point", "coordinates": [ 25.31666666666667, 54.650277777777781 ] } },
{ "type": "Feature", "properties": { "No": 158.0, "No_by_Stru": 105.0, "No_of_tri_": "V 28", "Name_by_St": "Chorunschischki", "Alt_names": "Sventininkai", "Lat_DMS": "54° 51'  43\"", "Lat_Dec": 54.861944, "Lon_DMS": "25° 37'  44\"", "Lon_Dec": 25.628889, "Country": "Lithuania", "UNESCO": 0.0, "Name_RU": "Хорунжишки" }, "geometry": { "type": "Point", "coordinates": [ 25.628888888888888, 54.861944444444447 ] } },
{ "type": "Feature", "properties": { "No": 156.0, "No_by_Stru": 106.0, "No_of_tri_": "VI  2", "Name_by_St": "Naborowtschisna", "Alt_names": "Nuobariskes", "Lat_DMS": "54° 42'  15\"", "Lat_Dec": 54.704167, "Lon_DMS": "24° 47'  60\"", "Lon_Dec": 24.8, "Country": "Lithuania", "UNESCO": 0.0, "Name_RU": "Наборовщизна" }, "geometry": { "type": "Point", "coordinates": [ 24.8, 54.704166666666673 ] } },
{ "type": "Feature", "properties": { "No": 154.0, "No_by_Stru": 107.0, "No_of_tri_": "VI  4", "Name_by_St": "Kongedi", "Alt_names": "Kangedai", "Lat_DMS": "55° 06'  31\"", "Lat_Dec": 55.108611, "Lon_DMS": "24° 46'  54\"", "Lon_Dec": 24.781667, "Country": "Lithuania", "UNESCO": 0.0, "Name_RU": "Конгеды" }, "geometry": { "type": "Point", "coordinates": [ 24.781666666666666, 55.108611111111109 ] } },
{ "type": "Feature", "properties": { "No": 155.0, "No_by_Stru": 107.0, "No_of_tri_": "VI  3", "Name_by_St": "Meschkanzi", "Alt_names": "Meskonys", "Lat_DMS": "54° 55'  51\"", "Lat_Dec": 54.930833, "Lon_DMS": "25° 19'  00\"", "Lon_Dec": 25.316667, "Country": "Lithuania", "UNESCO": 23.0, "Name_RU": "Мешканцы" }, "geometry": { "type": "Point", "coordinates": [ 25.31666666666667, 54.930833333333332 ] } },
{ "type": "Feature", "properties": { "No": 153.0, "No_by_Stru": 108.0, "No_of_tri_": "VI  5", "Name_by_St": "Ambroschischki", "Alt_names": "Ambraziskiai", "Lat_DMS": "55° 08'  24\"", "Lat_Dec": 55.14, "Lon_DMS": "25° 18'  24\"", "Lon_Dec": 25.306667, "Country": "Lithuania", "UNESCO": 0.0, "Name_RU": "Амброжишки" }, "geometry": { "type": "Point", "coordinates": [ 25.306666666666668, 55.14 ] } },
{ "type": "Feature", "properties": { "No": 152.0, "No_by_Stru": 109.0, "No_of_tri_": "VI  6", "Name_by_St": "Bolniki", "Alt_names": "Petrikiskiai", "Lat_DMS": "55° 16'  58\"", "Lat_Dec": 55.282778, "Lon_DMS": "25° 09'  13\"", "Lon_Dec": 25.153611, "Country": "Lithuania", "UNESCO": 0.0, "Name_RU": "Больники" }, "geometry": { "type": "Point", "coordinates": [ 25.153611111111111, 55.282777777777781 ] } },
{ "type": "Feature", "properties": { "No": 151.0, "No_by_Stru": 110.0, "No_of_tri_": "VI  7", "Name_by_St": "Tschiwili", "Alt_names": "Civyliai", "Lat_DMS": "55° 19'  06\"", "Lat_Dec": 55.318333, "Lon_DMS": "25° 28'  13\"", "Lon_Dec": 25.470278, "Country": "Lithuania", "UNESCO": 0.0, "Name_RU": "Чивили" }, "geometry": { "type": "Point", "coordinates": [ 25.470277777777778, 55.318333333333335 ] } },
{ "type": "Feature", "properties": { "No": 150.0, "No_by_Stru": 111.0, "No_of_tri_": "VI  8", "Name_by_St": "Stworanzi", "Alt_names": "Storiai", "Lat_DMS": "55° 29'  19\"", "Lat_Dec": 55.488611, "Lon_DMS": "25° 08'  60\"", "Lon_Dec": 25.15, "Country": "Lithuania", "UNESCO": 0.0, "Name_RU": "Створянцы" }, "geometry": { "type": "Point", "coordinates": [ 25.15, 55.488611111111112 ] } },
{ "type": "Feature", "properties": { "No": 149.0, "No_by_Stru": 112.0, "No_of_tri_": "VI  9", "Name_by_St": "Lipsk", "Alt_names": "Kuzmiskis", "Lat_DMS": "55° 32'  22\"", "Lat_Dec": 55.539444, "Lon_DMS": "25° 23'  46\"", "Lon_Dec": 25.396111, "Country": "Lithuania", "UNESCO": 0.0, "Name_RU": "Липск" }, "geometry": { "type": "Point", "coordinates": [ 25.396111111111111, 55.539444444444442 ] } },
{ "type": "Feature", "properties": { "No": 148.0, "No_by_Stru": 113.0, "No_of_tri_": "VI 10", "Name_by_St": "Kinderti", "Alt_names": "Kinderiai", "Lat_DMS": "55° 46'  27\"", "Lat_Dec": 55.774167, "Lon_DMS": "25° 06'  30\"", "Lon_Dec": 25.108333, "Country": "Lithuania", "UNESCO": 0.0, "Name_RU": "Киндерты" }, "geometry": { "type": "Point", "coordinates": [ 25.108333333333334, 55.774166666666666 ] } },
{ "type": "Feature", "properties": { "No": 147.0, "No_by_Stru": 114.0, "No_of_tri_": "VI 11", "Name_by_St": "Martintschuni", "Alt_names": "Martinciunai", "Lat_DMS": "55° 43'  28\"", "Lat_Dec": 55.724444, "Lon_DMS": "25° 37'  25\"", "Lon_Dec": 25.623611, "Country": "Lithuania", "UNESCO": 0.0, "Name_RU": "Мартынчуны" }, "geometry": { "type": "Point", "coordinates": [ 25.62361111111111, 55.724444444444444 ] } },
{ "type": "Feature", "properties": { "No": 146.0, "No_by_Stru": 115.0, "No_of_tri_": "VI 12", "Name_by_St": "Karischki", "Alt_names": "Gireisiai", "Lat_DMS": "55° 54'  09\"", "Lat_Dec": 55.9025, "Lon_DMS": "25° 26'  12\"", "Lon_Dec": 25.436667, "Country": "Lithuania", "UNESCO": 22.0, "Name_RU": "Каришки" }, "geometry": { "type": "Point", "coordinates": [ 25.436666666666667, 55.9025 ] } },
{ "type": "Feature", "properties": { "No": 145.0, "No_by_Stru": 116.0, "No_of_tri_": "VI 13", "Name_by_St": "Jakschti", "Alt_names": "Joksiai", "Lat_DMS": "55° 55'  55\"", "Lat_Dec": 55.931944, "Lon_DMS": "25° 08'  47\"", "Lon_Dec": 25.146389, "Country": "Lithuania", "UNESCO": 0.0, "Name_RU": "Якшты" }, "geometry": { "type": "Point", "coordinates": [ 25.14638888888889, 55.931944444444447 ] } },
{ "type": "Feature", "properties": { "No": 144.0, "No_by_Stru": 117.0, "No_of_tri_": "VI 14", "Name_by_St": "Ponedeli", "Alt_names": "Pandelis", "Lat_DMS": "56° 01'  43\"", "Lat_Dec": 56.028611, "Lon_DMS": "25° 13'  26\"", "Lon_Dec": 25.223889, "Country": "Lithuania", "UNESCO": 0.0, "Name_RU": "Понедели" }, "geometry": { "type": "Point", "coordinates": [ 25.22388888888889, 56.028611111111111 ] } },
{ "type": "Feature", "properties": { "No": 143.0, "No_by_Stru": 118.0, "No_of_tri_": "VI 15", "Name_by_St": "Chanuschischki", "Alt_names": "Ganusiski", "Lat_DMS": "56° 08'  46\"", "Lat_Dec": 56.146111, "Lon_DMS": "25° 31'  48\"", "Lon_Dec": 25.53, "Country": "Lithuania", "UNESCO": 0.0, "Name_RU": "Ганушишки" }, "geometry": { "type": "Point", "coordinates": [ 25.53, 56.146111111111111 ] } },
{ "type": "Feature", "properties": { "No": 142.0, "No_by_Stru": 119.0, "No_of_tri_": "VI 16", "Name_by_St": "Pilkaln", "Alt_names": null, "Lat_DMS": "56° 11'  37\"", "Lat_Dec": 56.193611, "Lon_DMS": "25° 09'  32\"", "Lon_Dec": 25.158889, "Country": "Latvia", "UNESCO": 0.0, "Name_RU": "Пилькальн" }, "geometry": { "type": "Point", "coordinates": [ 25.158888888888889, 56.19361111111111 ] } },
{ "type": "Feature", "properties": { "No": 141.0, "No_by_Stru": 120.0, "No_of_tri_": "VI 17", "Name_by_St": "Urmen", "Alt_names": null, "Lat_DMS": "56° 15'  24\"", "Lat_Dec": 56.256667, "Lon_DMS": "25° 32'  20\"", "Lon_Dec": 25.538889, "Country": "Latvia", "UNESCO": 0.0, "Name_RU": "Урмен" }, "geometry": { "type": "Point", "coordinates": [ 25.538888888888888, 56.256666666666668 ] } },
{ "type": "Feature", "properties": { "No": 135.0, "No_by_Stru": 121.0, "No_of_tri_": "VII20\/VI21", "Name_by_St": "Dabors-kalns", "Alt_names": null, "Lat_DMS": "56° 35'  03\"", "Lat_Dec": 56.584167, "Lon_DMS": "25° 41'  31\"", "Lon_Dec": 25.691944, "Country": "Latvia", "UNESCO": 0.0, "Name_RU": "Даборскальнс" }, "geometry": { "type": "Point", "coordinates": [ 25.691944444444445, 56.584166666666668 ] } },
{ "type": "Feature", "properties": { "No": 140.0, "No_by_Stru": 121.0, "No_of_tri_": "VI 18", "Name_by_St": "Daudsewas", "Alt_names": null, "Lat_DMS": "56° 28'  27\"", "Lat_Dec": 56.474167, "Lon_DMS": "25° 13'  03\"", "Lon_Dec": 25.2175, "Country": "Latvia", "UNESCO": 0.0, "Name_RU": "Даудзевас" }, "geometry": { "type": "Point", "coordinates": [ 25.2175, 56.474166666666669 ] } },
{ "type": "Feature", "properties": { "No": 139.0, "No_by_Stru": 122.0, "No_of_tri_": "VI 19", "Name_by_St": "Arbidani", "Alt_names": null, "Lat_DMS": "56° 28'  58\"", "Lat_Dec": 56.482778, "Lon_DMS": "25° 37'  45\"", "Lon_Dec": 25.629167, "Country": "Latvia", "UNESCO": 0.0, "Name_RU": "Арбидани" }, "geometry": { "type": "Point", "coordinates": [ 25.629166666666666, 56.482777777777777 ] } },
{ "type": "Feature", "properties": { "No": 138.0, "No_by_Stru": 123.0, "No_of_tri_": "VI 20", "Name_by_St": "Bristen", "Alt_names": null, "Lat_DMS": "56° 34'  53\"", "Lat_Dec": 56.581389, "Lon_DMS": "25° 21'  34\"", "Lon_Dec": 25.359444, "Country": "Latvia", "UNESCO": 0.0, "Name_RU": "Бристен" }, "geometry": { "type": "Point", "coordinates": [ 25.359444444444446, 56.581388888888888 ] } },
{ "type": "Feature", "properties": { "No": 137.0, "No_by_Stru": 126.0, "No_of_tri_": "VII22\/VI23", "Name_by_St": "Jakobstadt", "Alt_names": "Jekabpils", "Lat_DMS": "56° 30'  05\"", "Lat_Dec": 56.501389, "Lon_DMS": "25° 51'  24\"", "Lon_Dec": 25.856667, "Country": "Latvia", "UNESCO": 21.0, "Name_RU": "Якобштадт" }, "geometry": { "type": "Point", "coordinates": [ 25.856666666666666, 56.50138888888889 ] } },
{ "type": "Feature", "properties": { "No": 136.0, "No_by_Stru": 127.0, "No_of_tri_": "VII21\/VI22", "Name_by_St": "Kreutzburg", "Alt_names": null, "Lat_DMS": "56° 30'  41\"", "Lat_Dec": 56.511389, "Lon_DMS": "25° 51'  31\"", "Lon_Dec": 25.858611, "Country": "Latvia", "UNESCO": 0.0, "Name_RU": "Крейцбург" }, "geometry": { "type": "Point", "coordinates": [ 25.858611111111113, 56.511388888888895 ] } },
{ "type": "Feature", "properties": { "No": 134.0, "No_by_Stru": 129.0, "No_of_tri_": "VII 19", "Name_by_St": "Sestu-kalns", "Alt_names": "Sestukalns", "Lat_DMS": "56° 50'  24\"", "Lat_Dec": 56.84, "Lon_DMS": "25° 38'  12\"", "Lon_Dec": 25.636667, "Country": "Latvia", "UNESCO": 20.0, "Name_RU": "Сестукальнс" }, "geometry": { "type": "Point", "coordinates": [ 25.636666666666667, 56.84 ] } },
{ "type": "Feature", "properties": { "No": 133.0, "No_by_Stru": 130.0, "No_of_tri_": "VII 18", "Name_by_St": "Gaissa-kalns", "Alt_names": null, "Lat_DMS": "56° 52'  12\"", "Lat_Dec": 56.87, "Lon_DMS": "25° 57'  34\"", "Lon_Dec": 25.959444, "Country": "Latvia", "UNESCO": 0.0, "Name_RU": "Гайссакальнс" }, "geometry": { "type": "Point", "coordinates": [ 25.959444444444443, 56.87 ] } },
{ "type": "Feature", "properties": { "No": 132.0, "No_by_Stru": 131.0, "No_of_tri_": "VII 17", "Name_by_St": "Elkas-kalns", "Alt_names": null, "Lat_DMS": "57° 05'  00\"", "Lat_Dec": 57.083333, "Lon_DMS": "25° 35'  28\"", "Lon_Dec": 25.591111, "Country": "Latvia", "UNESCO": 0.0, "Name_RU": "Элкаскальнс" }, "geometry": { "type": "Point", "coordinates": [ 25.591111111111111, 57.083333333333336 ] } },
{ "type": "Feature", "properties": { "No": 131.0, "No_by_Stru": 132.0, "No_of_tri_": "VII 16", "Name_by_St": "Nessaule-kalns", "Alt_names": null, "Lat_DMS": "56° 57'  37\"", "Lat_Dec": 56.960278, "Lon_DMS": "26° 11'  05\"", "Lon_Dec": 26.184722, "Country": "Latvia", "UNESCO": 0.0, "Name_RU": "Нессаулекальнс" }, "geometry": { "type": "Point", "coordinates": [ 26.184722222222224, 56.960277777777776 ] } },
{ "type": "Feature", "properties": { "No": 130.0, "No_by_Stru": 133.0, "No_of_tri_": "VII 15", "Name_by_St": "Ramkau", "Alt_names": null, "Lat_DMS": "57° 10'  26\"", "Lat_Dec": 57.173889, "Lon_DMS": "26° 08'  58\"", "Lon_Dec": 26.149444, "Country": "Latvia", "UNESCO": 0.0, "Name_RU": "Рамкау" }, "geometry": { "type": "Point", "coordinates": [ 26.149444444444448, 57.173888888888889 ] } },
{ "type": "Feature", "properties": { "No": 129.0, "No_by_Stru": 134.0, "No_of_tri_": "VII 14", "Name_by_St": "Kortenhof", "Alt_names": null, "Lat_DMS": "57° 17'  10\"", "Lat_Dec": 57.286111, "Lon_DMS": "26° 46'  31\"", "Lon_Dec": 26.775278, "Country": "Latvia", "UNESCO": 0.0, "Name_RU": "Кортенгоф" }, "geometry": { "type": "Point", "coordinates": [ 26.775277777777777, 57.286111111111111 ] } },
{ "type": "Feature", "properties": { "No": 128.0, "No_by_Stru": 135.0, "No_of_tri_": "VII 13", "Name_by_St": "Palzmar", "Alt_names": null, "Lat_DMS": "57° 27'  32\"", "Lat_Dec": 57.458889, "Lon_DMS": "26° 12'  11\"", "Lon_Dec": 26.203056, "Country": "Latvia", "UNESCO": 0.0, "Name_RU": "Палцмар" }, "geometry": { "type": "Point", "coordinates": [ 26.203055555555554, 57.458888888888886 ] } },
{ "type": "Feature", "properties": { "No": 127.0, "No_by_Stru": 136.0, "No_of_tri_": "VII 12", "Name_by_St": "Oppekaln", "Alt_names": "Apekalns", "Lat_DMS": "57° 32'  59\"", "Lat_Dec": 57.549722, "Lon_DMS": "26° 54'  13\"", "Lon_Dec": 26.903611, "Country": "Latvia", "UNESCO": 0.0, "Name_RU": "Оппекальн" }, "geometry": { "type": "Point", "coordinates": [ 26.903611111111115, 57.549722222222229 ] } },
{ "type": "Feature", "properties": { "No": 126.0, "No_by_Stru": 137.0, "No_of_tri_": "VII 11", "Name_by_St": "Mario-maggi", "Alt_names": "Essemae", "Lat_DMS": "57° 38'  17\"", "Lat_Dec": 57.638056, "Lon_DMS": "26° 23'  41\"", "Lon_Dec": 26.394722, "Country": "Estonia", "UNESCO": 0.0, "Name_RU": "Мариомегги" }, "geometry": { "type": "Point", "coordinates": [ 26.394722222222221, 57.638055555555546 ] } },
{ "type": "Feature", "properties": { "No": 125.0, "No_by_Stru": 138.0, "No_of_tri_": "VII 10", "Name_by_St": "Hummelshof", "Alt_names": "Hummuli", "Lat_DMS": "57° 52'  58\"", "Lat_Dec": 57.882778, "Lon_DMS": "26° 00'  58\"", "Lon_Dec": 26.016111, "Country": "Estonia", "UNESCO": 0.0, "Name_RU": "Гуммелсгоф" }, "geometry": { "type": "Point", "coordinates": [ 26.016111111111112, 57.882777777777783 ] } },
{ "type": "Feature", "properties": { "No": 124.0, "No_by_Stru": 139.0, "No_of_tri_": "VII  9", "Name_by_St": "Lenard", "Alt_names": "Leenardi", "Lat_DMS": "57° 59'  01\"", "Lat_Dec": 57.983611, "Lon_DMS": "26° 21'  23\"", "Lon_Dec": 26.356389, "Country": "Estonia", "UNESCO": 0.0, "Name_RU": "Ленард" }, "geometry": { "type": "Point", "coordinates": [ 26.35638888888889, 57.983611111111109 ] } },
{ "type": "Feature", "properties": { "No": 123.0, "No_by_Stru": 140.0, "No_of_tri_": "VII  8", "Name_by_St": "Helmet", "Alt_names": "Helme", "Lat_DMS": "57° 59'  43\"", "Lat_Dec": 57.995278, "Lon_DMS": "25° 52'  54\"", "Lon_Dec": 25.881667, "Country": "Estonia", "UNESCO": 0.0, "Name_RU": "Гелмет" }, "geometry": { "type": "Point", "coordinates": [ 25.881666666666668, 57.995277777777787 ] } },
{ "type": "Feature", "properties": { "No": 122.0, "No_by_Stru": 141.0, "No_of_tri_": "VII  7", "Name_by_St": "Arrol", "Alt_names": "Arula", "Lat_DMS": "58° 02'  59\"", "Lat_Dec": 58.049722, "Lon_DMS": "26° 19'  33\"", "Lon_Dec": 26.325833, "Country": "Estonia", "UNESCO": 0.0, "Name_RU": "Арроль" }, "geometry": { "type": "Point", "coordinates": [ 26.325833333333332, 58.049722222222222 ] } },
{ "type": "Feature", "properties": { "No": 121.0, "No_by_Stru": 142.0, "No_of_tri_": "VII  6", "Name_by_St": "Annikatz", "Alt_names": "Anikatsi", "Lat_DMS": "58° 08'  32\"", "Lat_Dec": 58.142222, "Lon_DMS": "25° 45'  20\"", "Lon_Dec": 25.755556, "Country": "Estonia", "UNESCO": 0.0, "Name_RU": "Анникац" }, "geometry": { "type": "Point", "coordinates": [ 25.755555555555556, 58.14222222222223 ] } },
{ "type": "Feature", "properties": { "No": 120.0, "No_by_Stru": 143.0, "No_of_tri_": "VII  5", "Name_by_St": "Holstfershof", "Alt_names": "Holstre", "Lat_DMS": "58° 17'  35\"", "Lat_Dec": 58.293056, "Lon_DMS": "25° 43'  23\"", "Lon_Dec": 25.723056, "Country": "Estonia", "UNESCO": 0.0, "Name_RU": "Голстферсгоф" }, "geometry": { "type": "Point", "coordinates": [ 25.723055555555554, 58.293055555555561 ] } },
{ "type": "Feature", "properties": { "No": 116.0, "No_by_Stru": 144.0, "No_of_tri_": "VIII4\/VII4", "Name_by_St": "Oberpahlen", "Alt_names": "Poltsamaa", "Lat_DMS": "58° 39'  17\"", "Lat_Dec": 58.654722, "Lon_DMS": "25° 58'  05\"", "Lon_Dec": 25.968056, "Country": "Estonia", "UNESCO": 0.0, "Name_RU": "Оберпален" }, "geometry": { "type": "Point", "coordinates": [ 25.968055555555555, 58.654722222222226 ] } },
{ "type": "Feature", "properties": { "No": 117.0, "No_by_Stru": 144.0, "No_of_tri_": "VIII3\/VII3", "Name_by_St": "Arrohof", "Alt_names": "Arumoisa (Aru)", "Lat_DMS": "58° 16'  49\"", "Lat_Dec": 58.280278, "Lon_DMS": "26° 22'  29\"", "Lon_Dec": 26.374722, "Country": "Estonia", "UNESCO": 0.0, "Name_RU": "Аррогоф" }, "geometry": { "type": "Point", "coordinates": [ 26.374722222222221, 58.280277777777783 ] } },
{ "type": "Feature", "properties": { "No": 119.0, "No_by_Stru": 145.0, "No_of_tri_": "VIII1\/VII1", "Name_by_St": "Dorpat", "Alt_names": "Tartu Tahetorn", "Lat_DMS": "58° 22'  44\"", "Lat_Dec": 58.378889, "Lon_DMS": "26° 43'  12\"", "Lon_Dec": 26.72, "Country": "Estonia", "UNESCO": 19.0, "Name_RU": "Дерпт" }, "geometry": { "type": "Point", "coordinates": [ 26.72, 58.378888888888888 ] } },
{ "type": "Feature", "properties": { "No": 115.0, "No_by_Stru": 146.0, "No_of_tri_": "VIII  5", "Name_by_St": "Sall", "Alt_names": "Salla (Emumae)", "Lat_DMS": "58° 56'  15\"", "Lat_Dec": 58.9375, "Lon_DMS": "26° 22'  26\"", "Lon_Dec": 26.373889, "Country": "Estonia", "UNESCO": 0.0, "Name_RU": "Салль" }, "geometry": { "type": "Point", "coordinates": [ 26.373888888888889, 58.9375 ] } },
{ "type": "Feature", "properties": { "No": 118.0, "No_by_Stru": 146.0, "No_of_tri_": "VIII2\/VII2", "Name_by_St": "Kersel", "Alt_names": "Kaarepere", "Lat_DMS": "58° 39'  33\"", "Lat_Dec": 58.659167, "Lon_DMS": "26° 29'  54\"", "Lon_Dec": 26.498333, "Country": "Estonia", "UNESCO": 0.0, "Name_RU": "Керсел" }, "geometry": { "type": "Point", "coordinates": [ 26.498333333333338, 58.659166666666664 ] } },
{ "type": "Feature", "properties": { "No": 114.0, "No_by_Stru": 147.0, "No_of_tri_": "VIII  6", "Name_by_St": "Marien-Magdalenen", "Alt_names": "Koeru", "Lat_DMS": "58° 57'  51\"", "Lat_Dec": 58.964167, "Lon_DMS": "26° 01'  49\"", "Lon_Dec": 26.030278, "Country": "Estonia", "UNESCO": 0.0, "Name_RU": "Мариен" }, "geometry": { "type": "Point", "coordinates": [ 26.030277777777776, 58.964166666666657 ] } },
{ "type": "Feature", "properties": { "No": 113.0, "No_by_Stru": 148.0, "No_of_tri_": "VIII  7", "Name_by_St": "Ebbafer", "Alt_names": "Ebavere", "Lat_DMS": "59° 06'  14\"", "Lat_Dec": 59.103889, "Lon_DMS": "26° 13'  15\"", "Lon_Dec": 26.220833, "Country": "Estonia", "UNESCO": 0.0, "Name_RU": "Эббафер" }, "geometry": { "type": "Point", "coordinates": [ 26.220833333333335, 59.103888888888896 ] } },
{ "type": "Feature", "properties": { "No": 112.0, "No_by_Stru": 149.0, "No_of_tri_": "VIII  8", "Name_by_St": "Tammik", "Alt_names": null, "Lat_DMS": "58° 59'  30\"", "Lat_Dec": 58.991667, "Lon_DMS": "26° 20'  20\"", "Lon_Dec": 26.338889, "Country": "Estonia", "UNESCO": 0.0, "Name_RU": "Таммик" }, "geometry": { "type": "Point", "coordinates": [ 26.338888888888889, 58.991666666666667 ] } },
{ "type": "Feature", "properties": { "No": 111.0, "No_by_Stru": 150.0, "No_of_tri_": "VIII  9", "Name_by_St": "Raekull", "Alt_names": "Raekula", "Lat_DMS": "59° 09'  28\"", "Lat_Dec": 59.157778, "Lon_DMS": "26° 22'  17\"", "Lon_Dec": 26.371389, "Country": "Estonia", "UNESCO": 0.0, "Name_RU": "Разкюлл" }, "geometry": { "type": "Point", "coordinates": [ 26.371388888888887, 59.157777777777774 ] } },
{ "type": "Feature", "properties": { "No": 110.0, "No_by_Stru": 151.0, "No_of_tri_": "VIII 10", "Name_by_St": "Lewala", "Alt_names": "Levala", "Lat_DMS": "59° 15'  47\"", "Lat_Dec": 59.263056, "Lon_DMS": "26° 17'  25\"", "Lon_Dec": 26.290278, "Country": "Estonia", "UNESCO": 0.0, "Name_RU": "Левала" }, "geometry": { "type": "Point", "coordinates": [ 26.290277777777778, 59.263055555555546 ] } },
{ "type": "Feature", "properties": { "No": 109.0, "No_by_Stru": 152.0, "No_of_tri_": "VIII 11", "Name_by_St": "Warres-maggi", "Alt_names": "Varesemagi", "Lat_DMS": "59° 18'  35\"", "Lat_Dec": 59.309722, "Lon_DMS": "26° 33'  39\"", "Lon_Dec": 26.560833, "Country": "Estonia", "UNESCO": 0.0, "Name_RU": "Варресмегги" }, "geometry": { "type": "Point", "coordinates": [ 26.560833333333335, 59.30972222222222 ] } },
{ "type": "Feature", "properties": { "No": 108.0, "No_by_Stru": 153.0, "No_of_tri_": "VIII 12", "Name_by_St": "Halljall", "Alt_names": "Haljala", "Lat_DMS": "59° 25'  54\"", "Lat_Dec": 59.431667, "Lon_DMS": "26° 16'  05\"", "Lon_Dec": 26.268056, "Country": "Estonia", "UNESCO": 0.0, "Name_RU": "Гальялл" }, "geometry": { "type": "Point", "coordinates": [ 26.268055555555556, 59.431666666666665 ] } },
{ "type": "Feature", "properties": { "No": 107.0, "No_by_Stru": 154.0, "No_of_tri_": "VIII 13", "Name_by_St": "Hohenkreutz", "Alt_names": "Pikaristi", "Lat_DMS": "59° 25'  10\"", "Lat_Dec": 59.419444, "Lon_DMS": "26° 40'  40\"", "Lon_Dec": 26.677778, "Country": "Estonia", "UNESCO": 0.0, "Name_RU": "Гогенкрейц" }, "geometry": { "type": "Point", "coordinates": [ 26.677777777777777, 59.419444444444444 ] } },
{ "type": "Feature", "properties": { "No": 106.0, "No_by_Stru": 156.0, "No_of_tri_": "IX1\/VIII14", "Name_by_St": "Maki-paalys", "Alt_names": "Makipaallys", "Lat_DMS": "60° 04'  27\"", "Lat_Dec": 60.074167, "Lon_DMS": "26° 58'  11\"", "Lon_Dec": 26.969722, "Country": "Russia", "UNESCO": 15.0, "Name_RU": "Мекипелюс" }, "geometry": { "type": "Point", "coordinates": [ 26.969722222222227, 60.074166666666663 ] } },
{ "type": "Feature", "properties": { "No": 103.0, "No_by_Stru": 157.0, "No_of_tri_": "IX  4", "Name_by_St": "Tuskas", "Alt_names": null, "Lat_DMS": "60° 22'  57\"", "Lat_Dec": 60.3825, "Lon_DMS": "26° 33'  12\"", "Lon_Dec": 26.553333, "Country": "Finland", "UNESCO": 0.0, "Name_RU": "Тускас" }, "geometry": { "type": "Point", "coordinates": [ 26.553333333333338, 60.3825 ] } },
{ "type": "Feature", "properties": { "No": 104.0, "No_by_Stru": 157.0, "No_of_tri_": "IX  3", "Name_by_St": "Svartvira", "Alt_names": "Mustaviiri", "Lat_DMS": "60° 16'  35\"", "Lat_Dec": 60.276389, "Lon_DMS": "26° 36'  12\"", "Lon_Dec": 26.603333, "Country": "Finland", "UNESCO": 14.0, "Name_RU": "Свартвира" }, "geometry": { "type": "Point", "coordinates": [ 26.603333333333335, 60.276388888888889 ] } },
{ "type": "Feature", "properties": { "No": 102.0, "No_by_Stru": 158.0, "No_of_tri_": "IX  5", "Name_by_St": "Kokko-vuori", "Alt_names": null, "Lat_DMS": "60° 27'  41\"", "Lat_Dec": 60.461389, "Lon_DMS": "26° 47'  44\"", "Lon_Dec": 26.795556, "Country": "Finland", "UNESCO": 0.0, "Name_RU": "Кокковуори" }, "geometry": { "type": "Point", "coordinates": [ 26.795555555555556, 60.461388888888891 ] } },
{ "type": "Feature", "properties": { "No": 105.0, "No_by_Stru": 158.0, "No_of_tri_": "IX  2", "Name_by_St": "Ristisaari", "Alt_names": null, "Lat_DMS": "60° 18'  51\"", "Lat_Dec": 60.314167, "Lon_DMS": "26° 48'  51\"", "Lon_Dec": 26.814167, "Country": "Finland", "UNESCO": 0.0, "Name_RU": "Растисари" }, "geometry": { "type": "Point", "coordinates": [ 26.814166666666665, 60.314166666666665 ] } },
{ "type": "Feature", "properties": { "No": 101.0, "No_by_Stru": 159.0, "No_of_tri_": "IX  6", "Name_by_St": "Stromfors", "Alt_names": null, "Lat_DMS": "60° 31'  18\"", "Lat_Dec": 60.521667, "Lon_DMS": "26° 25'  50\"", "Lon_Dec": 26.430556, "Country": "Finland", "UNESCO": 0.0, "Name_RU": "Стремфорс" }, "geometry": { "type": "Point", "coordinates": [ 26.430555555555557, 60.521666666666661 ] } },
{ "type": "Feature", "properties": { "No": 100.0, "No_by_Stru": 160.0, "No_of_tri_": "IX  7", "Name_by_St": "Lovisa", "Alt_names": "”Kuckusten”", "Lat_DMS": "60° 26'  45\"", "Lat_Dec": 60.445833, "Lon_DMS": "26° 13'  52\"", "Lon_Dec": 26.231111, "Country": "Finland", "UNESCO": 0.0, "Name_RU": "Ловиза" }, "geometry": { "type": "Point", "coordinates": [ 26.231111111111115, 60.445833333333333 ] } },
{ "type": "Feature", "properties": { "No": 99.0, "No_by_Stru": 161.0, "No_of_tri_": "IX  8", "Name_by_St": "Korsmalm", "Alt_names": null, "Lat_DMS": "60° 35'  12\"", "Lat_Dec": 60.586667, "Lon_DMS": "26° 11'  21\"", "Lon_Dec": 26.189167, "Country": "Finland", "UNESCO": 0.0, "Name_RU": "Корсмалм" }, "geometry": { "type": "Point", "coordinates": [ 26.189166666666665, 60.586666666666673 ] } },
{ "type": "Feature", "properties": { "No": 98.0, "No_by_Stru": 162.0, "No_of_tri_": "IX  9", "Name_by_St": "Mustila", "Alt_names": null, "Lat_DMS": "60° 43'  31\"", "Lat_Dec": 60.725278, "Lon_DMS": "26° 21'  47\"", "Lon_Dec": 26.363056, "Country": "Finland", "UNESCO": 0.0, "Name_RU": "Мустила" }, "geometry": { "type": "Point", "coordinates": [ 26.363055555555558, 60.725277777777784 ] } },
{ "type": "Feature", "properties": { "No": 97.0, "No_by_Stru": 163.0, "No_of_tri_": "IX 10", "Name_by_St": "Porlom I", "Alt_names": "Lille-Porlom", "Lat_DMS": "60° 42'  02\"", "Lat_Dec": 60.700556, "Lon_DMS": "26° 00'  15\"", "Lon_Dec": 26.004167, "Country": "Finland", "UNESCO": 0.0, "Name_RU": "Порлоь I" }, "geometry": { "type": "Point", "coordinates": [ 26.004166666666666, 60.700555555555546 ] } },
{ "type": "Feature", "properties": { "No": 96.0, "No_by_Stru": 164.0, "No_of_tri_": "IX 11", "Name_by_St": "Porlom II", "Alt_names": "”Sture-Porlom” Tornimaki", "Lat_DMS": "60° 42'  17\"", "Lat_Dec": 60.704722, "Lon_DMS": "26° 00'  12\"", "Lon_Dec": 26.003333, "Country": "Finland", "UNESCO": 13.0, "Name_RU": "Порлом II" }, "geometry": { "type": "Point", "coordinates": [ 26.003333333333337, 60.704722222222223 ] } },
{ "type": "Feature", "properties": { "No": 95.0, "No_by_Stru": 165.0, "No_of_tri_": "IX 12", "Name_by_St": "Perheniemi", "Alt_names": null, "Lat_DMS": "60° 51'  01\"", "Lat_Dec": 60.850278, "Lon_DMS": "26° 11'  26\"", "Lon_Dec": 26.190556, "Country": "Finland", "UNESCO": 0.0, "Name_RU": "Пергениеми" }, "geometry": { "type": "Point", "coordinates": [ 26.190555555555555, 60.850277777777769 ] } },
{ "type": "Feature", "properties": { "No": 94.0, "No_by_Stru": 166.0, "No_of_tri_": "IX 13", "Name_by_St": "Willikkala", "Alt_names": null, "Lat_DMS": "60° 48'  33\"", "Lat_Dec": 60.809167, "Lon_DMS": "25° 56'  41\"", "Lon_Dec": 25.944722, "Country": "Finland", "UNESCO": 0.0, "Name_RU": "Вилликкала" }, "geometry": { "type": "Point", "coordinates": [ 25.944722222222222, 60.80916666666667 ] } },
{ "type": "Feature", "properties": { "No": 93.0, "No_by_Stru": 167.0, "No_of_tri_": "IX 14", "Name_by_St": "Huhtmar", "Alt_names": null, "Lat_DMS": "60° 55'  04\"", "Lat_Dec": 60.917778, "Lon_DMS": "25° 58'  56\"", "Lon_Dec": 25.982222, "Country": "Finland", "UNESCO": 0.0, "Name_RU": "Гухтмар" }, "geometry": { "type": "Point", "coordinates": [ 25.982222222222223, 60.917777777777779 ] } },
{ "type": "Feature", "properties": { "No": 92.0, "No_by_Stru": 168.0, "No_of_tri_": "IX 15", "Name_by_St": "Ammanauras", "Alt_names": null, "Lat_DMS": "60° 47'  16\"", "Lat_Dec": 60.787778, "Lon_DMS": "25° 45'  04\"", "Lon_Dec": 25.751111, "Country": "Finland", "UNESCO": 0.0, "Name_RU": "Эменеурез" }, "geometry": { "type": "Point", "coordinates": [ 25.751111111111111, 60.787777777777777 ] } },
{ "type": "Feature", "properties": { "No": 91.0, "No_by_Stru": 169.0, "No_of_tri_": "IX 16", "Name_by_St": "Messila", "Alt_names": null, "Lat_DMS": "61° 00'  25\"", "Lat_Dec": 61.006944, "Lon_DMS": "25° 31'  31\"", "Lon_Dec": 25.525278, "Country": "Finland", "UNESCO": 0.0, "Name_RU": "Мессиле" }, "geometry": { "type": "Point", "coordinates": [ 25.525277777777777, 61.006944444444436 ] } },
{ "type": "Feature", "properties": { "No": 90.0, "No_by_Stru": 170.0, "No_of_tri_": "IX 17", "Name_by_St": "Wahteristo", "Alt_names": null, "Lat_DMS": "61° 04'  48\"", "Lat_Dec": 61.08, "Lon_DMS": "25° 51'  28\"", "Lon_Dec": 25.857778, "Country": "Finland", "UNESCO": 0.0, "Name_RU": "Вахтеристо" }, "geometry": { "type": "Point", "coordinates": [ 25.857777777777777, 61.08 ] } },
{ "type": "Feature", "properties": { "No": 89.0, "No_by_Stru": 171.0, "No_of_tri_": "IX 18", "Name_by_St": "Wesivehmais", "Alt_names": null, "Lat_DMS": "61° 09'  21\"", "Lat_Dec": 61.155833, "Lon_DMS": "25° 41'  25\"", "Lon_Dec": 25.690278, "Country": "Finland", "UNESCO": 0.0, "Name_RU": "Везивехмайс" }, "geometry": { "type": "Point", "coordinates": [ 25.690277777777776, 61.155833333333341 ] } },
{ "type": "Feature", "properties": { "No": 88.0, "No_by_Stru": 172.0, "No_of_tri_": "IX 19", "Name_by_St": "Kurhila", "Alt_names": null, "Lat_DMS": "61° 12'  18\"", "Lat_Dec": 61.205, "Lon_DMS": "25° 24'  07\"", "Lon_Dec": 25.401944, "Country": "Finland", "UNESCO": 0.0, "Name_RU": "Кургила" }, "geometry": { "type": "Point", "coordinates": [ 25.401944444444446, 61.205 ] } },
{ "type": "Feature", "properties": { "No": 87.0, "No_by_Stru": 173.0, "No_of_tri_": "IX 20", "Name_by_St": "Soitin-kallio", "Alt_names": null, "Lat_DMS": "61° 21'  35\"", "Lat_Dec": 61.359722, "Lon_DMS": "25° 42'  26\"", "Lon_Dec": 25.707222, "Country": "Finland", "UNESCO": 0.0, "Name_RU": "Сойтинкаллио" }, "geometry": { "type": "Point", "coordinates": [ 25.707222222222221, 61.359722222222224 ] } },
{ "type": "Feature", "properties": { "No": 86.0, "No_by_Stru": 174.0, "No_of_tri_": "IX 21", "Name_by_St": "Wirmala", "Alt_names": null, "Lat_DMS": "61° 26'  60\"", "Lat_Dec": 61.45, "Lon_DMS": "25° 19'  20\"", "Lon_Dec": 25.322222, "Country": "Finland", "UNESCO": 0.0, "Name_RU": "Вирмала" }, "geometry": { "type": "Point", "coordinates": [ 25.322222222222223, 61.45 ] } },
{ "type": "Feature", "properties": { "No": 85.0, "No_by_Stru": 175.0, "No_of_tri_": "IX 22", "Name_by_St": "Wiljamin-vuori", "Alt_names": null, "Lat_DMS": "61° 35'  21\"", "Lat_Dec": 61.589167, "Lon_DMS": "25° 49'  29\"", "Lon_Dec": 25.824722, "Country": "Finland", "UNESCO": 0.0, "Name_RU": "Вильяминвуори" }, "geometry": { "type": "Point", "coordinates": [ 25.824722222222221, 61.589166666666664 ] } },
{ "type": "Feature", "properties": { "No": 84.0, "No_by_Stru": 176.0, "No_of_tri_": "IX 23", "Name_by_St": "Kylma-kangas", "Alt_names": null, "Lat_DMS": "61° 37'  32\"", "Lat_Dec": 61.625556, "Lon_DMS": "25° 24'  39\"", "Lon_Dec": 25.410833, "Country": "Finland", "UNESCO": 0.0, "Name_RU": "Кюлмекангас" }, "geometry": { "type": "Point", "coordinates": [ 25.410833333333336, 61.625555555555557 ] } },
{ "type": "Feature", "properties": { "No": 83.0, "No_by_Stru": 177.0, "No_of_tri_": "IX 24", "Name_by_St": "Kammio", "Alt_names": null, "Lat_DMS": "61° 41'  51\"", "Lat_Dec": 61.6975, "Lon_DMS": "25° 42'  11\"", "Lon_Dec": 25.703056, "Country": "Finland", "UNESCO": 0.0, "Name_RU": "Каммио" }, "geometry": { "type": "Point", "coordinates": [ 25.703055555555558, 61.6975 ] } },
{ "type": "Feature", "properties": { "No": 82.0, "No_by_Stru": 178.0, "No_of_tri_": "IX 25", "Name_by_St": "Rappu-vuori", "Alt_names": null, "Lat_DMS": "61° 48'  37\"", "Lat_Dec": 61.810278, "Lon_DMS": "25° 25'  40\"", "Lon_Dec": 25.427778, "Country": "Finland", "UNESCO": 0.0, "Name_RU": "Раппувуори" }, "geometry": { "type": "Point", "coordinates": [ 25.427777777777777, 61.810277777777777 ] } },
{ "type": "Feature", "properties": { "No": 81.0, "No_by_Stru": 179.0, "No_of_tri_": "IX 26", "Name_by_St": "Tammi-maki", "Alt_names": null, "Lat_DMS": "61° 50'  06\"", "Lat_Dec": 61.835, "Lon_DMS": "25° 59'  46\"", "Lon_Dec": 25.996111, "Country": "Finland", "UNESCO": 0.0, "Name_RU": "Таммимеки" }, "geometry": { "type": "Point", "coordinates": [ 25.996111111111112, 61.835 ] } },
{ "type": "Feature", "properties": { "No": 80.0, "No_by_Stru": 180.0, "No_of_tri_": "IX 27", "Name_by_St": "Puolakka", "Alt_names": "Oravivuori", "Lat_DMS": "61° 55'  36\"", "Lat_Dec": 61.926667, "Lon_DMS": "25° 32'  01\"", "Lon_Dec": 25.533611, "Country": "Finland", "UNESCO": 12.0, "Name_RU": "Пуолакка" }, "geometry": { "type": "Point", "coordinates": [ 25.53361111111111, 61.926666666666662 ] } },
{ "type": "Feature", "properties": { "No": 79.0, "No_by_Stru": 181.0, "No_of_tri_": "IX 28", "Name_by_St": "Waater-vuori", "Alt_names": null, "Lat_DMS": "62° 04'  29\"", "Lat_Dec": 62.074722, "Lon_DMS": "25° 57'  40\"", "Lon_Dec": 25.961111, "Country": "Finland", "UNESCO": 0.0, "Name_RU": "Ватервуори" }, "geometry": { "type": "Point", "coordinates": [ 25.961111111111112, 62.074722222222228 ] } },
{ "type": "Feature", "properties": { "No": 78.0, "No_by_Stru": 182.0, "No_of_tri_": "IX 29", "Name_by_St": "Jyvaskyla", "Alt_names": null, "Lat_DMS": "62° 12'  48\"", "Lat_Dec": 62.213333, "Lon_DMS": "25° 42'  03\"", "Lon_Dec": 25.700833, "Country": "Finland", "UNESCO": 0.0, "Name_RU": "Ювескюле" }, "geometry": { "type": "Point", "coordinates": [ 25.700833333333332, 62.213333333333338 ] } },
{ "type": "Feature", "properties": { "No": 77.0, "No_by_Stru": 183.0, "No_of_tri_": "IX 30", "Name_by_St": "Ruuhi-maki", "Alt_names": null, "Lat_DMS": "62° 12'  49\"", "Lat_Dec": 62.213611, "Lon_DMS": "26° 11'  04\"", "Lon_Dec": 26.184444, "Country": "Finland", "UNESCO": 0.0, "Name_RU": "Ругимеки" }, "geometry": { "type": "Point", "coordinates": [ 26.184444444444445, 62.213611111111113 ] } },
{ "type": "Feature", "properties": { "No": 76.0, "No_by_Stru": 184.0, "No_of_tri_": "IX 31", "Name_by_St": "Laaja-vuori", "Alt_names": null, "Lat_DMS": "62° 15'  29\"", "Lat_Dec": 62.258056, "Lon_DMS": "25° 41'  03\"", "Lon_Dec": 25.684167, "Country": "Finland", "UNESCO": 0.0, "Name_RU": "Лаявуори" }, "geometry": { "type": "Point", "coordinates": [ 25.684166666666666, 62.258055555555551 ] } },
{ "type": "Feature", "properties": { "No": 75.0, "No_by_Stru": 185.0, "No_of_tri_": "IX 32", "Name_by_St": "Multa-maki", "Alt_names": null, "Lat_DMS": "62° 27'  45\"", "Lat_Dec": 62.4625, "Lon_DMS": "25° 51'  45\"", "Lon_Dec": 25.8625, "Country": "Finland", "UNESCO": 0.0, "Name_RU": "Мултамеки" }, "geometry": { "type": "Point", "coordinates": [ 25.8625, 62.4625 ] } },
{ "type": "Feature", "properties": { "No": 74.0, "No_by_Stru": 186.0, "No_of_tri_": "IX 33", "Name_by_St": "Ohi-maki", "Alt_names": null, "Lat_DMS": "62° 29'  33\"", "Lat_Dec": 62.4925, "Lon_DMS": "26° 16'  27\"", "Lon_Dec": 26.274167, "Country": "Finland", "UNESCO": 0.0, "Name_RU": "Огимеки" }, "geometry": { "type": "Point", "coordinates": [ 26.274166666666666, 62.4925 ] } },
{ "type": "Feature", "properties": { "No": 73.0, "No_by_Stru": 187.0, "No_of_tri_": "IX 34", "Name_by_St": "Silmut-maki", "Alt_names": null, "Lat_DMS": "62° 39'  03\"", "Lat_Dec": 62.650833, "Lon_DMS": "26° 19'  02\"", "Lon_Dec": 26.317222, "Country": "Finland", "UNESCO": 0.0, "Name_RU": "Силмутмеки" }, "geometry": { "type": "Point", "coordinates": [ 26.317222222222224, 62.650833333333331 ] } },
{ "type": "Feature", "properties": { "No": 72.0, "No_by_Stru": 188.0, "No_of_tri_": "IX 35", "Name_by_St": "Ila-maki", "Alt_names": null, "Lat_DMS": "62° 42'  37\"", "Lat_Dec": 62.710278, "Lon_DMS": "25° 47'  56\"", "Lon_Dec": 25.798889, "Country": "Finland", "UNESCO": 0.0, "Name_RU": "Иламеки" }, "geometry": { "type": "Point", "coordinates": [ 25.798888888888889, 62.710277777777769 ] } },
{ "type": "Feature", "properties": { "No": 71.0, "No_by_Stru": 189.0, "No_of_tri_": "IX 36", "Name_by_St": "Liston-maki", "Alt_names": null, "Lat_DMS": "62° 51'  30\"", "Lat_Dec": 62.858333, "Lon_DMS": "26° 05'  51\"", "Lon_Dec": 26.0975, "Country": "Finland", "UNESCO": 0.0, "Name_RU": "Листонмеки" }, "geometry": { "type": "Point", "coordinates": [ 26.0975, 62.858333333333334 ] } },
{ "type": "Feature", "properties": { "No": 70.0, "No_by_Stru": 191.0, "No_of_tri_": "X1\/IX38", "Name_by_St": "Kilpi-maki", "Alt_names": null, "Lat_DMS": "62° 38'  03\"", "Lat_Dec": 62.634167, "Lon_DMS": "26° 46'  04\"", "Lon_Dec": 26.767778, "Country": "Finland", "UNESCO": 0.0, "Name_RU": "Килпимеки" }, "geometry": { "type": "Point", "coordinates": [ 26.767777777777777, 62.634166666666673 ] } },
{ "type": "Feature", "properties": { "No": 67.0, "No_by_Stru": 193.0, "No_of_tri_": "X  4", "Name_by_St": "Lehto-maki", "Alt_names": null, "Lat_DMS": "63° 13'  50\"", "Lat_Dec": 63.230556, "Lon_DMS": "26° 27'  02\"", "Lon_Dec": 26.450556, "Country": "Finland", "UNESCO": 0.0, "Name_RU": "Лехтомеки" }, "geometry": { "type": "Point", "coordinates": [ 26.450555555555557, 63.230555555555554 ] } },
{ "type": "Feature", "properties": { "No": 69.0, "No_by_Stru": 193.0, "No_of_tri_": "X2\/IX37", "Name_by_St": "Wesa-maki", "Alt_names": null, "Lat_DMS": "62° 55'  45\"", "Lat_Dec": 62.929167, "Lon_DMS": "26° 28'  50\"", "Lon_Dec": 26.480556, "Country": "Finland", "UNESCO": 0.0, "Name_RU": "Везамеки" }, "geometry": { "type": "Point", "coordinates": [ 26.480555555555554, 62.929166666666667 ] } },
{ "type": "Feature", "properties": { "No": 66.0, "No_by_Stru": 194.0, "No_of_tri_": "X  5", "Name_by_St": "Pollo-maki", "Alt_names": null, "Lat_DMS": "63° 22'  47\"", "Lat_Dec": 63.379722, "Lon_DMS": "27° 07'  45\"", "Lon_Dec": 27.129167, "Country": "Finland", "UNESCO": 0.0, "Name_RU": "Пеллемеки" }, "geometry": { "type": "Point", "coordinates": [ 27.129166666666666, 63.37972222222222 ] } },
{ "type": "Feature", "properties": { "No": 68.0, "No_by_Stru": 194.0, "No_of_tri_": "X  3", "Name_by_St": "Honka-maki", "Alt_names": null, "Lat_DMS": "62° 57'  28\"", "Lat_Dec": 62.957778, "Lon_DMS": "27° 06'  23\"", "Lon_Dec": 27.106389, "Country": "Finland", "UNESCO": 0.0, "Name_RU": "Хонкамеки" }, "geometry": { "type": "Point", "coordinates": [ 27.106388888888894, 62.957777777777778 ] } },
{ "type": "Feature", "properties": { "No": 65.0, "No_by_Stru": 195.0, "No_of_tri_": "X  6", "Name_by_St": "Pihlajan-maki", "Alt_names": null, "Lat_DMS": "63° 30'  13\"", "Lat_Dec": 63.503611, "Lon_DMS": "26° 24'  06\"", "Lon_Dec": 26.401667, "Country": "Finland", "UNESCO": 0.0, "Name_RU": "Пихлаянмеки" }, "geometry": { "type": "Point", "coordinates": [ 26.401666666666667, 63.503611111111113 ] } },
{ "type": "Feature", "properties": { "No": 64.0, "No_by_Stru": 196.0, "No_of_tri_": "X  7", "Name_by_St": "Ii-maki", "Alt_names": null, "Lat_DMS": "63° 37'  46\"", "Lat_Dec": 63.629444, "Lon_DMS": "27° 04'  31\"", "Lon_Dec": 27.075278, "Country": "Finland", "UNESCO": 0.0, "Name_RU": "Имеки" }, "geometry": { "type": "Point", "coordinates": [ 27.075277777777778, 63.629444444444438 ] } },
{ "type": "Feature", "properties": { "No": 63.0, "No_by_Stru": 197.0, "No_of_tri_": "X  8", "Name_by_St": "Kivi-maki", "Alt_names": null, "Lat_DMS": "63° 39'  55\"", "Lat_Dec": 63.665278, "Lon_DMS": "27° 21'  02\"", "Lon_Dec": 27.350556, "Country": "Finland", "UNESCO": 0.0, "Name_RU": "Кивимеки" }, "geometry": { "type": "Point", "coordinates": [ 27.350555555555555, 63.665277777777774 ] } },
{ "type": "Feature", "properties": { "No": 62.0, "No_by_Stru": 198.0, "No_of_tri_": "X  9", "Name_by_St": "Sallisen-maki", "Alt_names": null, "Lat_DMS": "63° 49'  20\"", "Lat_Dec": 63.822222, "Lon_DMS": "27° 16'  58\"", "Lon_Dec": 27.282778, "Country": "Finland", "UNESCO": 0.0, "Name_RU": "Саллизенмеки" }, "geometry": { "type": "Point", "coordinates": [ 27.282777777777778, 63.822222222222223 ] } },
{ "type": "Feature", "properties": { "No": 61.0, "No_by_Stru": 199.0, "No_of_tri_": "X 10", "Name_by_St": "Kulven-maki", "Alt_names": null, "Lat_DMS": "63° 46'  05\"", "Lat_Dec": 63.768056, "Lon_DMS": "27° 38'  30\"", "Lon_Dec": 27.641667, "Country": "Finland", "UNESCO": 0.0, "Name_RU": "Кулвенмеки" }, "geometry": { "type": "Point", "coordinates": [ 27.641666666666666, 63.768055555555563 ] } },
{ "type": "Feature", "properties": { "No": 60.0, "No_by_Stru": 200.0, "No_of_tri_": "X 11", "Name_by_St": "Naaras-maki", "Alt_names": null, "Lat_DMS": "63° 55'  48\"", "Lat_Dec": 63.93, "Lon_DMS": "27° 49'  34\"", "Lon_Dec": 27.826111, "Country": "Finland", "UNESCO": 0.0, "Name_RU": "Нарасмеки" }, "geometry": { "type": "Point", "coordinates": [ 27.826111111111111, 63.93 ] } },
{ "type": "Feature", "properties": { "No": 59.0, "No_by_Stru": 201.0, "No_of_tri_": "X 12", "Name_by_St": "Murto-maki", "Alt_names": null, "Lat_DMS": "63° 59'  55\"", "Lat_Dec": 63.998611, "Lon_DMS": "27° 23'  49\"", "Lon_Dec": 27.396944, "Country": "Finland", "UNESCO": 0.0, "Name_RU": "Муртомеки" }, "geometry": { "type": "Point", "coordinates": [ 27.396944444444447, 63.998611111111103 ] } },
{ "type": "Feature", "properties": { "No": 58.0, "No_by_Stru": 202.0, "No_of_tri_": "X 13", "Name_by_St": "Lehto-vaara", "Alt_names": null, "Lat_DMS": "64° 05'  08\"", "Lat_Dec": 64.085556, "Lon_DMS": "27° 42'  30\"", "Lon_Dec": 27.708333, "Country": "Finland", "UNESCO": 0.0, "Name_RU": "Лехтовара" }, "geometry": { "type": "Point", "coordinates": [ 27.708333333333332, 64.085555555555558 ] } },
{ "type": "Feature", "properties": { "No": 57.0, "No_by_Stru": 203.0, "No_of_tri_": "X 14", "Name_by_St": "Otan-maki", "Alt_names": null, "Lat_DMS": "64° 07'  05\"", "Lat_Dec": 64.118056, "Lon_DMS": "27° 06'  07\"", "Lon_Dec": 27.101944, "Country": "Finland", "UNESCO": 0.0, "Name_RU": "Отанмеки" }, "geometry": { "type": "Point", "coordinates": [ 27.101944444444445, 64.118055555555557 ] } },
{ "type": "Feature", "properties": { "No": 56.0, "No_by_Stru": 204.0, "No_of_tri_": "X 15", "Name_by_St": "Kives-vaara", "Alt_names": null, "Lat_DMS": "64° 27'  37\"", "Lat_Dec": 64.460278, "Lon_DMS": "27° 32'  28\"", "Lon_Dec": 27.541111, "Country": "Finland", "UNESCO": 0.0, "Name_RU": "Кивесвара" }, "geometry": { "type": "Point", "coordinates": [ 27.54111111111111, 64.460277777777776 ] } },
{ "type": "Feature", "properties": { "No": 55.0, "No_by_Stru": 205.0, "No_of_tri_": "X 16", "Name_by_St": "Rupukka-vaara", "Alt_names": null, "Lat_DMS": "64° 14'  33\"", "Lat_Dec": 64.2425, "Lon_DMS": "27° 57'  39\"", "Lon_Dec": 27.960833, "Country": "Finland", "UNESCO": 0.0, "Name_RU": "Рупуккавара" }, "geometry": { "type": "Point", "coordinates": [ 27.960833333333333, 64.2425 ] } },
{ "type": "Feature", "properties": { "No": 54.0, "No_by_Stru": 206.0, "No_of_tri_": "X 17", "Name_by_St": "Saukko-vaara", "Alt_names": null, "Lat_DMS": "64° 26'  53\"", "Lat_Dec": 64.448056, "Lon_DMS": "28° 12'  28\"", "Lon_Dec": 28.207778, "Country": "Finland", "UNESCO": 0.0, "Name_RU": "Саукковара" }, "geometry": { "type": "Point", "coordinates": [ 28.207777777777782, 64.448055555555555 ] } },
{ "type": "Feature", "properties": { "No": 53.0, "No_by_Stru": 207.0, "No_of_tri_": "X 18", "Name_by_St": "Teiri-harju", "Alt_names": null, "Lat_DMS": "64° 40'  41\"", "Lat_Dec": 64.678056, "Lon_DMS": "27° 57'  56\"", "Lon_Dec": 27.965556, "Country": "Finland", "UNESCO": 0.0, "Name_RU": "Тьерихарю" }, "geometry": { "type": "Point", "coordinates": [ 27.965555555555557, 64.678055555555559 ] } },
{ "type": "Feature", "properties": { "No": 52.0, "No_by_Stru": 208.0, "No_of_tri_": "X 19", "Name_by_St": "Puokio-vaara", "Alt_names": null, "Lat_DMS": "64° 44'  52\"", "Lat_Dec": 64.747778, "Lon_DMS": "27° 20'  33\"", "Lon_Dec": 27.3425, "Country": "Finland", "UNESCO": 0.0, "Name_RU": "Пуокиовара" }, "geometry": { "type": "Point", "coordinates": [ 27.3425, 64.747777777777785 ] } },
{ "type": "Feature", "properties": { "No": 51.0, "No_by_Stru": 209.0, "No_of_tri_": "X 20", "Name_by_St": "Rokua-vaara", "Alt_names": null, "Lat_DMS": "64° 33'  52\"", "Lat_Dec": 64.564444, "Lon_DMS": "26° 29'  41\"", "Lon_Dec": 26.494722, "Country": "Finland", "UNESCO": 0.0, "Name_RU": "Рукуавара" }, "geometry": { "type": "Point", "coordinates": [ 26.494722222222222, 64.564444444444447 ] } },
{ "type": "Feature", "properties": { "No": 50.0, "No_by_Stru": 210.0, "No_of_tri_": "X 21", "Name_by_St": "Palo-vaara", "Alt_names": null, "Lat_DMS": "64° 49'  38\"", "Lat_Dec": 64.827222, "Lon_DMS": "26° 55'  00\"", "Lon_Dec": 26.916667, "Country": "Finland", "UNESCO": 0.0, "Name_RU": "Паловара" }, "geometry": { "type": "Point", "coordinates": [ 26.916666666666668, 64.827222222222218 ] } },
{ "type": "Feature", "properties": { "No": 49.0, "No_by_Stru": 211.0, "No_of_tri_": "X 22", "Name_by_St": "Revonpesamaa", "Alt_names": null, "Lat_DMS": "64° 49'  29\"", "Lat_Dec": 64.824722, "Lon_DMS": "26° 40'  13\"", "Lon_Dec": 26.670278, "Country": "Finland", "UNESCO": 0.0, "Name_RU": "Ревенпесема" }, "geometry": { "type": "Point", "coordinates": [ 26.670277777777777, 64.824722222222221 ] } },
{ "type": "Feature", "properties": { "No": 48.0, "No_by_Stru": 212.0, "No_of_tri_": "X 23", "Name_by_St": "Repo-kangas", "Alt_names": null, "Lat_DMS": "64° 48'  32\"", "Lat_Dec": 64.808889, "Lon_DMS": "26° 09'  37\"", "Lon_Dec": 26.160278, "Country": "Finland", "UNESCO": 0.0, "Name_RU": "Репокангас" }, "geometry": { "type": "Point", "coordinates": [ 26.160277777777779, 64.808888888888887 ] } },
{ "type": "Feature", "properties": { "No": 47.0, "No_by_Stru": 213.0, "No_of_tri_": "X 24", "Name_by_St": "Halosen-vaara", "Alt_names": null, "Lat_DMS": "64° 43'  32\"", "Lat_Dec": 64.725556, "Lon_DMS": "25° 53'  35\"", "Lon_Dec": 25.893056, "Country": "Finland", "UNESCO": 0.0, "Name_RU": "Галозенвара" }, "geometry": { "type": "Point", "coordinates": [ 25.893055555555556, 64.725555555555559 ] } },
{ "type": "Feature", "properties": { "No": 46.0, "No_by_Stru": 214.0, "No_of_tri_": "X 25", "Name_by_St": "Pilkaselka", "Alt_names": null, "Lat_DMS": "64° 55'  37\"", "Lat_Dec": 64.926944, "Lon_DMS": "25° 55'  52\"", "Lon_Dec": 25.931111, "Country": "Finland", "UNESCO": 0.0, "Name_RU": "Питкесельке" }, "geometry": { "type": "Point", "coordinates": [ 25.931111111111111, 64.926944444444445 ] } },
{ "type": "Feature", "properties": { "No": 45.0, "No_by_Stru": 215.0, "No_of_tri_": "X 26", "Name_by_St": "Linnunsilma", "Alt_names": null, "Lat_DMS": "64° 51'  12\"", "Lat_Dec": 64.853333, "Lon_DMS": "25° 41'  42\"", "Lon_Dec": 25.695, "Country": "Finland", "UNESCO": 0.0, "Name_RU": "Линнунсилме" }, "geometry": { "type": "Point", "coordinates": [ 25.695, 64.853333333333339 ] } },
{ "type": "Feature", "properties": { "No": 44.0, "No_by_Stru": 216.0, "No_of_tri_": "X 27", "Name_by_St": "Sarvi-kangas", "Alt_names": null, "Lat_DMS": "65° 00'  27\"", "Lat_Dec": 65.0075, "Lon_DMS": "25° 37'  15\"", "Lon_Dec": 25.620833, "Country": "Finland", "UNESCO": 0.0, "Name_RU": "Сарвикангас" }, "geometry": { "type": "Point", "coordinates": [ 25.620833333333334, 65.0075 ] } },
{ "type": "Feature", "properties": { "No": 43.0, "No_by_Stru": 217.0, "No_of_tri_": "X 28", "Name_by_St": "Laton-maki", "Alt_names": null, "Lat_DMS": "64° 49'  37\"", "Lat_Dec": 64.826944, "Lon_DMS": "25° 09'  33\"", "Lon_Dec": 25.159167, "Country": "Finland", "UNESCO": 0.0, "Name_RU": "Латонмеки" }, "geometry": { "type": "Point", "coordinates": [ 25.159166666666668, 64.82694444444445 ] } },
{ "type": "Feature", "properties": { "No": 42.0, "No_by_Stru": 218.0, "No_of_tri_": "X 29", "Name_by_St": "Hyypan-maki", "Alt_names": null, "Lat_DMS": "65° 03'  50\"", "Lat_Dec": 65.063889, "Lon_DMS": "24° 48'  02\"", "Lon_Dec": 24.800556, "Country": "Finland", "UNESCO": 0.0, "Name_RU": "Гипенмеки" }, "geometry": { "type": "Point", "coordinates": [ 24.800555555555555, 65.063888888888883 ] } },
{ "type": "Feature", "properties": { "No": 41.0, "No_by_Stru": 219.0, "No_of_tri_": "X 30", "Name_by_St": "Isoniemi", "Alt_names": null, "Lat_DMS": "65° 09'  45\"", "Lat_Dec": 65.1625, "Lon_DMS": "25° 14'  12\"", "Lon_Dec": 25.236667, "Country": "Finland", "UNESCO": 0.0, "Name_RU": "Изониеми" }, "geometry": { "type": "Point", "coordinates": [ 25.236666666666668, 65.1625 ] } },
{ "type": "Feature", "properties": { "No": 40.0, "No_by_Stru": 220.0, "No_of_tri_": "X 31", "Name_by_St": "Ulkogrunni", "Alt_names": "Ulkokrunni", "Lat_DMS": "65° 23'  21\"", "Lat_Dec": 65.389167, "Lon_DMS": "24° 50'  20\"", "Lon_Dec": 24.838889, "Country": "Finland", "UNESCO": 0.0, "Name_RU": "Улкогрунни" }, "geometry": { "type": "Point", "coordinates": [ 24.838888888888889, 65.389166666666668 ] } },
{ "type": "Feature", "properties": { "No": 39.0, "No_by_Stru": 221.0, "No_of_tri_": "X 32", "Name_by_St": "Rontti", "Alt_names": null, "Lat_DMS": "65° 20'  43\"", "Lat_Dec": 65.345278, "Lon_DMS": "25° 14'  44\"", "Lon_Dec": 25.245556, "Country": "Finland", "UNESCO": 0.0, "Name_RU": "Ронтти" }, "geometry": { "type": "Point", "coordinates": [ 25.245555555555555, 65.345277777777781 ] } },
{ "type": "Feature", "properties": { "No": 38.0, "No_by_Stru": 222.0, "No_of_tri_": "X 33", "Name_by_St": "Kivalo", "Alt_names": null, "Lat_DMS": "65° 49'  23\"", "Lat_Dec": 65.823056, "Lon_DMS": "25° 00'  25\"", "Lon_Dec": 25.006944, "Country": "Finland", "UNESCO": 0.0, "Name_RU": "Кивало" }, "geometry": { "type": "Point", "coordinates": [ 25.006944444444443, 65.823055555555555 ] } },
{ "type": "Feature", "properties": { "No": 37.0, "No_by_Stru": 223.0, "No_of_tri_": "X 34", "Name_by_St": "Ajos", "Alt_names": null, "Lat_DMS": "65° 40'  03\"", "Lat_Dec": 65.6675, "Lon_DMS": "24° 33'  12\"", "Lon_Dec": 24.553333, "Country": "Finland", "UNESCO": 0.0, "Name_RU": "Аиос" }, "geometry": { "type": "Point", "coordinates": [ 24.553333333333335, 65.6675 ] } },
{ "type": "Feature", "properties": { "No": 35.0, "No_by_Stru": 225.0, "No_of_tri_": "XI  2", "Name_by_St": "Kaakama-vaara", "Alt_names": "Tynnyrilaki", "Lat_DMS": "66° 08'  27\"", "Lat_Dec": 66.140833, "Lon_DMS": "24° 11'  52\"", "Lon_Dec": 24.197778, "Country": "Finland", "UNESCO": 0.0, "Name_RU": "Какамавара" }, "geometry": { "type": "Point", "coordinates": [ 24.197777777777777, 66.140833333333333 ] } },
{ "type": "Feature", "properties": { "No": 34.0, "No_by_Stru": 226.0, "No_of_tri_": "XI  3", "Name_by_St": "Perra-vaara", "Alt_names": null, "Lat_DMS": "66° 01'  05\"", "Lat_Dec": 66.018056, "Lon_DMS": "23° 55'  21\"", "Lon_Dec": 23.9225, "Country": "Sweden", "UNESCO": 8.0, "Name_RU": "Перравара" }, "geometry": { "type": "Point", "coordinates": [ 23.9225, 66.018055555555549 ] } },
{ "type": "Feature", "properties": { "No": 36.0, "No_by_Stru": 226.0, "No_of_tri_": "XI1\/X35", "Name_by_St": "Tornea", "Alt_names": "Tornio", "Lat_DMS": "65° 49'  48\"", "Lat_Dec": 65.83, "Lon_DMS": "24° 09'  26\"", "Lon_Dec": 24.157222, "Country": "Finland", "UNESCO": 11.0, "Name_RU": "Торнеа" }, "geometry": { "type": "Point", "coordinates": [ 24.157222222222224, 65.83 ] } },
{ "type": "Feature", "properties": { "No": 32.0, "No_by_Stru": 228.0, "No_of_tri_": "XI  5", "Name_by_St": "Horrilankero", "Alt_names": "”Gorrilankero”", "Lat_DMS": "66° 27'  54\"", "Lat_Dec": 66.465, "Lon_DMS": "24° 00'  15\"", "Lon_Dec": 24.004167, "Country": "Finland", "UNESCO": 0.0, "Name_RU": "Горриланкеро" }, "geometry": { "type": "Point", "coordinates": [ 24.004166666666666, 66.465 ] } },
{ "type": "Feature", "properties": { "No": 33.0, "No_by_Stru": 228.0, "No_of_tri_": "XI  4", "Name_by_St": "Huitaperi", "Alt_names": "”Guitaperi”", "Lat_DMS": "66° 14'  54\"", "Lat_Dec": 66.248333, "Lon_DMS": "23° 46'  58\"", "Lon_Dec": 23.782778, "Country": "Finland", "UNESCO": 0.0, "Name_RU": "Гуйтапери" }, "geometry": { "type": "Point", "coordinates": [ 23.782777777777778, 66.248333333333335 ] } },
{ "type": "Feature", "properties": { "No": 31.0, "No_by_Stru": 229.0, "No_of_tri_": "XI  6", "Name_by_St": "Avasaksa", "Alt_names": "Aavasaksa", "Lat_DMS": "66° 23'  52\"", "Lat_Dec": 66.397778, "Lon_DMS": "23° 43'  31\"", "Lon_Dec": 23.725278, "Country": "Finland", "UNESCO": 10.0, "Name_RU": "Авасакса" }, "geometry": { "type": "Point", "coordinates": [ 23.725277777777777, 66.397777777777776 ] } },
{ "type": "Feature", "properties": { "No": 30.0, "No_by_Stru": 230.0, "No_of_tri_": "XI  7", "Name_by_St": "Pullinki", "Alt_names": null, "Lat_DMS": "66° 38'  47\"", "Lat_Dec": 66.646389, "Lon_DMS": "23° 46'  55\"", "Lon_Dec": 23.781944, "Country": "Sweden", "UNESCO": 7.0, "Name_RU": "Пуллинки" }, "geometry": { "type": "Point", "coordinates": [ 23.781944444444445, 66.646388888888893 ] } },
{ "type": "Feature", "properties": { "No": 29.0, "No_by_Stru": 231.0, "No_of_tri_": "XI  8", "Name_by_St": "Niemi-vaara", "Alt_names": "Niemivaara", "Lat_DMS": "66° 34'  40\"", "Lat_Dec": 66.577778, "Lon_DMS": "24° 07'  35\"", "Lon_Dec": 24.126389, "Country": "Finland", "UNESCO": 0.0, "Name_RU": "Ниэмиварра" }, "geometry": { "type": "Point", "coordinates": [ 24.12638888888889, 66.577777777777783 ] } },
{ "type": "Feature", "properties": { "No": 28.0, "No_by_Stru": 232.0, "No_of_tri_": "XI  9", "Name_by_St": "Kittis-vaara", "Alt_names": "”Kittis” Kittisvaara", "Lat_DMS": "66° 48'  36\"", "Lat_Dec": 66.81, "Lon_DMS": "24° 00'  32\"", "Lon_Dec": 24.008889, "Country": "Finland", "UNESCO": 0.0, "Name_RU": "Киттисвара" }, "geometry": { "type": "Point", "coordinates": [ 24.00888888888889, 66.81 ] } },
{ "type": "Feature", "properties": { "No": 27.0, "No_by_Stru": 233.0, "No_of_tri_": "XI 10", "Name_by_St": "Paljukka-vaara", "Alt_names": "Paljukkavaara", "Lat_DMS": "66° 58'  08\"", "Lat_Dec": 66.968889, "Lon_DMS": "23° 21'  49\"", "Lon_Dec": 23.363611, "Country": "Sweden", "UNESCO": 0.0, "Name_RU": "Пальюккавара" }, "geometry": { "type": "Point", "coordinates": [ 23.363611111111116, 66.968888888888884 ] } },
{ "type": "Feature", "properties": { "No": 26.0, "No_by_Stru": 234.0, "No_of_tri_": "XI 11", "Name_by_St": "Ollos-vaara", "Alt_names": "”Ollosvara” Olosvaara", "Lat_DMS": "66° 58'  09\"", "Lat_Dec": 66.969167, "Lon_DMS": "24° 08'  27\"", "Lon_Dec": 24.140833, "Country": "Finland", "UNESCO": 0.0, "Name_RU": "Оллосвара" }, "geometry": { "type": "Point", "coordinates": [ 24.140833333333333, 66.969166666666666 ] } },
{ "type": "Feature", "properties": { "No": 25.0, "No_by_Stru": 235.0, "No_of_tri_": "XI 12", "Name_by_St": "Ylinen-vaara", "Alt_names": "”Ilinenvaara” Ylinenvaara", "Lat_DMS": "67° 10'  37\"", "Lat_Dec": 67.176944, "Lon_DMS": "23° 55'  07\"", "Lon_Dec": 23.918611, "Country": "Finland", "UNESCO": 0.0, "Name_RU": "Илиненвара" }, "geometry": { "type": "Point", "coordinates": [ 23.918611111111112, 67.176944444444445 ] } },
{ "type": "Feature", "properties": { "No": 24.0, "No_by_Stru": 236.0, "No_of_tri_": "XI 13", "Name_by_St": "Kerrojupukka", "Alt_names": "Jupukka", "Lat_DMS": "67° 16'  36\"", "Lat_Dec": 67.276667, "Lon_DMS": "23° 14'  35\"", "Lon_Dec": 23.243056, "Country": "Sweden", "UNESCO": 6.0, "Name_RU": "Керроюпукка" }, "geometry": { "type": "Point", "coordinates": [ 23.243055555555557, 67.276666666666671 ] } },
{ "type": "Feature", "properties": { "No": 23.0, "No_by_Stru": 237.0, "No_of_tri_": "XI 14", "Name_by_St": "Kuivaskero", "Alt_names": "Kiuaskero", "Lat_DMS": "67° 33'  21\"", "Lat_Dec": 67.555833, "Lon_DMS": "23° 48'  36\"", "Lon_Dec": 23.81, "Country": "Finland", "UNESCO": 0.0, "Name_RU": "Куйваскеро" }, "geometry": { "type": "Point", "coordinates": [ 23.81, 67.555833333333354 ] } },
{ "type": "Feature", "properties": { "No": 22.0, "No_by_Stru": 238.0, "No_of_tri_": "XI 15", "Name_by_St": "Lumi-vaara", "Alt_names": "Lumivara", "Lat_DMS": "67° 33'  04\"", "Lat_Dec": 67.551111, "Lon_DMS": "23° 04'  07\"", "Lon_Dec": 23.068611, "Country": "Sweden", "UNESCO": 0.0, "Name_RU": "Лумивара" }, "geometry": { "type": "Point", "coordinates": [ 23.06861111111111, 67.551111111111112 ] } },
{ "type": "Feature", "properties": { "No": 21.0, "No_by_Stru": 239.0, "No_of_tri_": "XI 16", "Name_by_St": "Ollos-tunturi", "Alt_names": "”Ollostunturi” Olostunturi", "Lat_DMS": "67° 55'  27\"", "Lat_Dec": 67.924167, "Lon_DMS": "23° 48'  30\"", "Lon_Dec": 23.808333, "Country": "Finland", "UNESCO": 0.0, "Name_RU": "Оллостунтури" }, "geometry": { "type": "Point", "coordinates": [ 23.808333333333334, 67.924166666666665 ] } },
{ "type": "Feature", "properties": { "No": 20.0, "No_by_Stru": 240.0, "No_of_tri_": "XI 17", "Name_by_St": "Pessinki", "Alt_names": null, "Lat_DMS": "67° 54'  44\"", "Lat_Dec": 67.912222, "Lon_DMS": "22° 43'  12\"", "Lon_Dec": 22.72, "Country": "Sweden", "UNESCO": 0.0, "Name_RU": "Пессинки" }, "geometry": { "type": "Point", "coordinates": [ 22.72, 67.912222222222226 ] } },
{ "type": "Feature", "properties": { "No": 19.0, "No_by_Stru": 241.0, "No_of_tri_": "XI 18", "Name_by_St": "Ounas-tunturi", "Alt_names": "”Aunastunturi” Ounastunturi", "Lat_DMS": "68° 14'  02\"", "Lat_Dec": 68.233889, "Lon_DMS": "23° 49'  39\"", "Lon_Dec": 23.8275, "Country": "Finland", "UNESCO": 0.0, "Name_RU": "Аунастунтури" }, "geometry": { "type": "Point", "coordinates": [ 23.8275, 68.233888888888885 ] } },
{ "type": "Feature", "properties": { "No": 18.0, "No_by_Stru": 242.0, "No_of_tri_": "XI 19", "Name_by_St": "Pajtas-vaara", "Alt_names": "Tynnyrilaki", "Lat_DMS": "68° 15'  18\"", "Lat_Dec": 68.255, "Lon_DMS": "22° 58'  59\"", "Lon_Dec": 22.983056, "Country": "Sweden", "UNESCO": 5.0, "Name_RU": "Пайтасвара" }, "geometry": { "type": "Point", "coordinates": [ 22.983055555555556, 68.255 ] } },
{ "type": "Feature", "properties": { "No": 17.0, "No_by_Stru": 243.0, "No_of_tri_": "XI 20", "Name_by_St": "Kersti-vaara", "Alt_names": "”Kerstivara” Jerstivaara", "Lat_DMS": "68° 38'  58\"", "Lat_Dec": 68.649444, "Lon_DMS": "23° 42'  43\"", "Lon_Dec": 23.711944, "Country": "Finland", "UNESCO": 0.0, "Name_RU": "Керстивара" }, "geometry": { "type": "Point", "coordinates": [ 23.711944444444445, 68.649444444444441 ] } },
{ "type": "Feature", "properties": { "No": 16.0, "No_by_Stru": 245.0, "No_of_tri_": "XII1\/XI21", "Name_by_St": "Stuor-oivi", "Alt_names": "Stuorrahanoaivi", "Lat_DMS": "68° 40'  57\"", "Lat_Dec": 68.6825, "Lon_DMS": "22° 44'  45\"", "Lon_Dec": 22.745833, "Country": "Finland", "UNESCO": 9.0, "Name_RU": "Стуоройви" }, "geometry": { "type": "Point", "coordinates": [ 22.745833333333334, 68.6825 ] } },
{ "type": "Feature", "properties": { "No": 13.0, "No_by_Stru": 247.0, "No_of_tri_": "XII  4", "Name_by_St": "Spjellega", "Alt_names": "Spielgavarri", "Lat_DMS": "69° 13'  52\"", "Lat_Dec": 69.231111, "Lon_DMS": "23° 20'  06\"", "Lon_Dec": 23.335, "Country": "Norway", "UNESCO": 0.0, "Name_RU": "Спиеллега" }, "geometry": { "type": "Point", "coordinates": [ 23.335, 69.231111111111105 ] } },
{ "type": "Feature", "properties": { "No": 14.0, "No_by_Stru": 247.0, "No_of_tri_": "XII  3", "Name_by_St": "Baljatz-vaara", "Alt_names": "Baelljasvarri", "Lat_DMS": "69° 01'  43\"", "Lat_Dec": 69.028611, "Lon_DMS": "23° 18'  19\"", "Lon_Dec": 23.305278, "Country": "Norway", "UNESCO": 4.0, "Name_RU": "Бальяцвара" }, "geometry": { "type": "Point", "coordinates": [ 23.305277777777778, 69.028611111111104 ] } },
{ "type": "Feature", "properties": { "No": 15.0, "No_by_Stru": 247.0, "No_of_tri_": "XII  2", "Name_by_St": "Atjik", "Alt_names": "Addjit", "Lat_DMS": "68° 56'  24\"", "Lat_Dec": 68.94, "Lon_DMS": "22° 44'  35\"", "Lon_Dec": 22.743056, "Country": "Norway", "UNESCO": 0.0, "Name_RU": "Атьик" }, "geometry": { "type": "Point", "coordinates": [ 22.743055555555561, 68.94 ] } },
{ "type": "Feature", "properties": { "No": 12.0, "No_by_Stru": 248.0, "No_of_tri_": "XII  5", "Name_by_St": "Zhjara-vaara", "Alt_names": "Caravarri", "Lat_DMS": "69° 21'  09\"", "Lat_Dec": 69.3525, "Lon_DMS": "22° 53'  10\"", "Lon_Dec": 22.886111, "Country": "Norway", "UNESCO": 0.0, "Name_RU": "Цияравара" }, "geometry": { "type": "Point", "coordinates": [ 22.886111111111113, 69.3525 ] } },
{ "type": "Feature", "properties": { "No": 11.0, "No_by_Stru": 249.0, "No_of_tri_": "XII  6", "Name_by_St": "Avjo-vaara", "Alt_names": "Avjuvarri", "Lat_DMS": "69° 25'  14\"", "Lat_Dec": 69.420556, "Lon_DMS": "23° 51'  48\"", "Lon_Dec": 23.863333, "Country": "Norway", "UNESCO": 0.0, "Name_RU": "Авиовара" }, "geometry": { "type": "Point", "coordinates": [ 23.863333333333333, 69.420555555555552 ] } },